,REPORTING YEAR,FACILITY NAME,LATITUDE,LONGITUDE,CITY,COUNTY,STATE,ZIP CODE,PARENT COMPANIES,GHG QUANTITY (METRIC TONS CO2e)
0,2023,(430) Civitas Resources - Permian Basin,39.74522001,-104.989197,Denver,Unknown,CO,80202,CIVITAS RESOURCES INC,844548
1,2023,(540) Civitas Resources - Denver Basin,39.74431,-104.98858,Denver,Unknown,CO,80202,CIVITAS RESOURCES INC,887487
2,2023,(540) Civitas Resources - GB - Denver Basin,39.74582152,-104.9892427,Denver,Unknown,CO,80202,CIVITAS RESOURCES INC,110747
3,2023,121 REGIONAL DISPOSAL FACILITY,33.29857,-96.53586,MELISSA,COLLIN COUNTY,TX,75454,NORTH TEXAS MUNICIPAL WATER DISTRICT,288302
4,2023,15-18565/15-18662,37.274127,-83.239034,Hazard,PERRY COUNTY,KY,40701,CAMBRIAN COAL LLC,122327
5,2023,1500 South Tibbs LLC d/b/a Aurorium Indianapolis LLC,39.73,-86.26,Indianapolis,MARION COUNTY,IN,46242,VERTELLUS HOLDINGS LLC,64807
6,2023,1876 CO DJ Basin,39.73652198,-104.98676,Denver,Unknown,CO,80203,"1876 Resources, LLC",27277
7,2023,"1876 Resources, LLC - Denver Basin",39.73652198,-104.98676,Denver,Unknown,CO,80203,CUB CREEK ENERGY LLC,27277
8,2023,220 Gulf Coast Basin,29.75993,-95.366413,Houston,HARRIS COUNTY,TX,77002,TARGA RESOURCES CORP,286498
9,2023,220 Gulf Coast Basin DEC,35.466697,-97.51453,Oklahoma City,Unknown,OK,73102,DEVON ENERGY CORP,1166132
10,2023,23rd and 3rd,40.663,-74.0,BROOKLYN,Kings,NY,11232,NEW YORK POWER AUTHORITY,31916
11,2023,260 East Texas Basin - BP America Production Company,29.78037,-95.6295,Houston,Unknown,TX,77079,BP AMERICA INC,13382
12,2023,30-30 Gas Plant,33.05188,-102.88792,Plains,YOAKUM COUNTY,TX,79355,STAKEHOLDER GAS SERVICES LLC,44171
13,2023,31st Street Landfill,41.834962,-87.916392,WESTCHESTER,COOK COUNTY,IL,60154,CATHOLIC BISHOP OF CHICAGO,29264
14,2023,345 Arkoma Basin,29.75993,-95.366413,Houston,HARRIS COUNTY,TX,77002,TARGA RESOURCES CORP,92930
15,2023,350 South Oklahoma Folded Belt,29.75993,-95.366413,Houston,HARRIS COUNTY,TX,77002,TARGA RESOURCES CORP,89986
16,2023,360 Anadarko Basin,35.56719,-97.49827,Oklahoma City,Unknown,OK,73142,CHAPARRAL ENERGY INC,182531
17,2023,360 Anadarko Basin,29.75993,-95.366413,Houston,HARRIS COUNTY,TX,77002,TARGA RESOURCES CORP,240664
18,2023,360 Anadarko Basin DEC,35.466697,-97.51453,Oklahoma City,Unknown,OK,73102,DEVON ENERGY CORP,310278
19,2023,360 Anadarko Camino Production,39.75164151,-104.9966423,Denver,Unknown,CO,80202,CAMINO NATURAL RESOURCES LLC,125092
20,2023,375 Sedgwick Basin,29.75993,-95.366413,Houston,HARRIS COUNTY,TX,77002,TARGA RESOURCES CORP,33057
21,2023,395 Williston Basin,29.75993,-95.366413,Houston,HARRIS COUNTY,TX,77002,TARGA RESOURCES CORP (55%); BLACKSTONE GSO HOLDINGS LLC,132909
22,2023,395 Williston Basin GB WPX,35.46715529,-97.51773636,OKLAHOMA CITY,Unknown,OK,73102,DEVON ENERGY CORP,26472
23,2023,3M BROWNWOOD,31.671177,-98.996513,BROWNWOOD,BROWN COUNTY,TX,76801,3M CO,22883
24,2023,3M CO,44.951,-92.9959,MAPLEWOOD,RAMSEY COUNTY,MN,55144,3M CO,77909
25,2023,3M CO - GUIN,33.96548,-87.89936,GUIN,MARION COUNTY,AL,35563,3M CO,30098
26,2023,3M CO - WAUSAU DOWNTOWN,44.95018,-89.63766,WAUSAU,MARATHON COUNTY,WI,54401,3M CO,35941
27,2023,3M Chemical Operations' Cordova Facility,41.755,-90.284167,CORDOVA,ROCK ISLAND COUNTY,IL,61242,3M CO,637397
28,2023,3M Chemical Operations' Cottage Grove Facility,44.789444,-92.908333,Cottage Grove,WASHINGTON COUNTY,MN,55016,3M CO,20825
29,2023,3M Chemical Operations' Decatur Facility,34.641667,-87.038611,DECATUR,MORGAN COUNTY,AL,35609,3M CO,37564
30,2023,3M INDUSTRIAL MINERAL PRODUCTS DIVISION,34.70537,-92.24607,LITTLE ROCK,PULASKI COUNTY,AR,72206,3M CO,32129
31,2023,3M MAGNETIC TAPE MANUFACTURING DIVISION,44.879677,-94.359598,HUTCHINSON,MCLEOD COUNTY,MN,55350,3M CO,53953
32,2023,3M NEVADA PLANT,37.834476,-94.330625,NEVADA,VERNON COUNTY,MO,64772,3M CO,31394
33,2023,3M Pittsboro,35.660546,-79.176782,Moncure,Unknown,NC,27559,3M CO,27051
34,2023,415 Strawn BKV  GB,32.78882,-97.34363,FORT WORTH,Unknown,TX,76106,BKV CORP,163140
35,2023,415 Strawn Basin BKV - Production,35.4711808,-97.516602,FORT WORTH,Unknown,TX,76106,BKV CORP,600459
36,2023,420 Fort Worth Syncline,29.75993,-95.366413,Houston,HARRIS COUNTY,TX,77002,TARGA RESOURCES CORP,162594
37,2023,420 Fort Worth Syncline BKV  GB,32.78882,-97.34363,Fort Worth,Unknown,TX,76106,BKV CORP,27713
38,2023,420 Fort Worth Syncline BKV - Production,35.466697,-97.51453,Bridgeport,Unknown,TX,76426,BKV CORP,664355
39,2023,425 Bend Arch,29.75993,-95.366413,Houston,HARRIS COUNTY,TX,77002,TARGA RESOURCES CORP,29618
40,2023,430 - Permian Basin - Pinon,29.77706001,-95.619326,Houston,Unknown,TX,77079,PINON MIDSTREAM LLC,116847
41,2023,430 Cotton Draw Midstream,35.46713402,-97.5177769,Oklahoma City,Unknown,OK,73102,COTTON DRAW MIDSTREAM LLC,219519
42,2023,430 Permian Basin,29.75993,-95.366413,Houston,HARRIS COUNTY,TX,77002,TARGA RESOURCES CORP,3604780
43,2023,430 Permian Basin DEC,35.466697,-97.51453,Oklahoma City,OKLAHOMA COUNTY,OK,73102,DEVON ENERGY CORP,790205
44,2023,430 Permian Basin GB DEC,35.46713402,-97.5177769,Oklahoma City,Unknown,OK,73102,DEVON ENERGY CORP,55787
45,2023,48th Street Peaking Station,42.7553,-86.0853,HOLLAND,Allegan,MI,49423,CITY OF HOLLAND MICHIGAN,39264
46,2023,50 Buttes Gas Plant,43.85274,-105.77781,Gillette,CAMPBELL COUNTY,WY,82716,MERITAGE MIDSTREAM SERVICES II LLC,61389
47,2023,515 Powder River Basin DEC,35.4711808,-97.516602,Oklahoma City,Unknown,OK,73102,DEVON ENERGY CORP,207646
48,2023,580 - San Juan Basin Gathering/Boosting,37.33290351,-107.8777404,DURANGO,Unknown,CO,81301,BP AMERICA INC,252801
49,2023,580 San Juan Basin - Simcoe LLC,29.78037,-95.6295,DURANGO,Unknown,CO,81301,BP AMERICA INC,969987
50,2023,58TH ST LF (MAIN COUNTY LF),25.83301,-80.3465,MIAMI,MIAMI-DADE COUNTY,FL,33178,COUNTY OF MIAMI-DADE FLORIDA,53834
51,2023,59th Street,40.7711,-73.9911,NEW YORK,New York,NY,10019,CONSOLIDATED EDISON INC,174671
52,2023,69TH ST WWTP,29.75579,-95.29791,HOUSTON,HARRIS COUNTY,TX,77020,CITY OF HOUSTON TEXAS,25104
53,2023,74th Street,40.768,-73.9515,NEW YORK,New York,NY,10021,CONSOLIDATED EDISON INC,251176
54,2023,A B Brown Generating Station,37.9053,-87.715,MOUNT VERNON,Posey,IN,47620,CENTERPOINT ENERGY INC,1982201
55,2023,"A.C.M.S., Inc.",28.743151,-82.091653,Lake Panasoffkee,SUMTER COUNTY,FL,33538,WASTE CONNECTIONS US INC,67748
56,2023,A.J. Mihm Generating Station,46.793722,-88.616566,Pelkie,Unknown,MI,49958,WEC Energy Group Inc,106545
57,2023,ABBOTT PARK FACILITY,42.30227,-87.89065,ABBOTT PARK,LAKE COUNTY,IL,60064,ABBOTT LABORATORIES,53456
58,2023,ABBVIE LTD.,18.433237,-66.570509,BARCELONETA,BARCELONETA MUNICIPIO,PR,617,ABBVIE INC,61699
59,2023,ABC COKE,33.580769,-86.781281,TARRANT,JEFFERSON COUNTY,AL,35217,DRUMMOND CO INC,159779
60,2023,ABERDEEN ENERGY LLC,45.442417,-98.787139,MINA,EDMUNDS COUNTY,SD,57451,GLACIAL LAKES CORN PROCESSORS,197928
61,2023,ABERDEEN PROVING GROUND-Aberdeen Area & Edgewood Area,39.481881,-76.137166,APG,HARFORD COUNTY,MD,21005,US GOVERNME,4784
62,2023,ABSOLUTE ENERGY LLC,43.49951,-92.91709,ST ANSGAR (MONA),MITCHELL COUNTY,IA,50472,ABSOLUTE ENERGY LLC,151261
63,2023,AC 857 A,26.29555555,-94.89777777,Offshore,Unknown,TX,0,SHELL PETROLEUM INC,180279
64,2023,ACADIA PARISH POLICE JURY - ACADIA PARISH SANITARY LANDFILL,30.256038,-92.532637,EGAN,ACADIA PARISH,LA,70531,ACADIA PARISH POLICE JURY,46996
65,2023,ACE ETHANOL LLC,44.9589,-90.9608,STANLEY,CHIPPEWA COUNTY,WI,54768,ACE ETHANOL LLC,80642
66,2023,ACME BRICK CO ELGIN PLANT,30.32903,-97.29207,ELGIN,BASTROP COUNTY,TX,78621,BERKSHIRE HATHAWAY INC,27873
67,2023,ACME GYPSUM FACILITY,34.323944,-99.818194,QUANAH,HARDEMAN COUNTY,TX,79252,KOCH INDUSTRIES INC,4747
68,2023,ADA COGENERATION,42.929287,-85.431127,ADA,KENT COUNTY,MI,49355,ADA COGENERATION LP,99086
69,2023,"ADA Carbon Solutions (Red River), LLC",32.005405,-93.387829,Coushatta,RED RIVER PARISH,LA,71019,ADA CARBON SOLUTIONS LLC,292348
70,2023,ADKINS ENERGY LLC,42.3586,-89.80342,LENA,STEPHENSON COUNTY,IL,61048,ADKINS ENERGY LLC,89423
71,2023,ADM - MANKATO,44.186805,-93.995493,MANKATO,BLUE EARTH COUNTY,MN,56001,ARCHER DANIELS MIDLAND CO,80347
72,2023,ADM CORN PROCESSING,41.9192,-91.6862,CEDAR RAPIDS,LINN COUNTY,IA,52404,ARCHER DANIELS MIDLAND CO,2746519
73,2023,ADM CORN PROCESSING,41.8196,-90.2122,CLINTON,CLINTON COUNTY,IA,52732,ARCHER DANIELS MIDLAND CO,1945777
74,2023,ADM Deerfield,37.80725,-94.585301,Deerfield,VERNON COUNTY,MO,64741,ARCHER DANIELS MIDLAND CO,40707
75,2023,ADM Fostoria,41.1494,-83.43295,Fostoria,HANCOCK COUNTY,OH,44830,ARCHER DANIELS MIDLAND CO,29827
76,2023,ADM QUINCY,39.903884,-91.410552,QUINCY,ADAMS COUNTY,IL,62305,ARCHER DANIELS MIDLAND CO,112816
77,2023,ADM SOUTHERN CELLULOSE PROD.IN,34.997921,-85.318581,CHATTANOOGA,HAMILTON COUNTY,TN,37410,ARCHER DANIELS MIDLAND CO,18140
78,2023,ADM SOYBEAN PROCESSING - DES MOINES,41.626329,-93.583205,DES MOINES,POLK COUNTY,IA,50313,ARCHER DANIELS MIDLAND CO,108458
79,2023,ADM Southport,33.94516,-78.00117,Southport,BRUNSWICK COUNTY,NC,28461,ARCHER DANIELS MIDLAND CO,82308
80,2023,ADM Valdosta,30.8325,-83.248056,Valdosta,LOWNDES COUNTY,GA,31601,ARCHER DANIELS MIDLAND CO,62577
81,2023,ADRIAN LANDFILL,41.885177,-84.059029,ADRIAN,LENAWEE COUNTY,MI,49221,REPUBLIC SERVICES INC,5171
82,2023,ADS-CEDAR HILL LANDFILL,33.6845,-86.2525,RAGLAND,ST. CLAIR COUNTY,AL,35131,WASTE MANAGEMENT INC,21817
83,2023,ADS-PECAN ROW-EVERGREEN LANDFILLS,30.81425,-83.35981,VALDOSTA,LOWNDES COUNTY,GA,31601,WASTE MANAGEMENT INC,46721
84,2023,ADS-STAR RIDGE LANDFILL,33.607092,-86.507602,MOODY,ST. CLAIR COUNTY,AL,35004,WASTE MANAGEMENT INC,18145
85,2023,ADS/MCLEAN COUNTY LANDFILL,40.465534,-89.03273,BLOOMINGTON,MCLEAN COUNTY,IL,61704,REPUBLIC SERVICES INC,3070
86,2023,ADVANCED DISPOSAL CRANBERRY CREEK LANDFILL LLC,44.4093,-89.854855,WISCONSIN RAPIDS,WOOD COUNTY,WI,54495,WASTE MANAGEMENT INC,22229
87,2023,"ADVANCED DISPOSAL MAPLE HILL LANDFILL, LLC",39.73376,-92.53825,MACON,MACON COUNTY,MO,63552,WASTE MANAGEMENT INC,26771
88,2023,ADVANCED DISPOSAL OAK RIDGE LANDFILL,38.556639,-90.527306,BALWIN,ST. LOUIS COUNTY,MO,63021,WASTE MANAGEMENT INC,3571
89,2023,ADVANCED DISPOSAL ORCHARD HILLS LANDFILL INC,42.14,-89.085,DAVIS JUNCTION,OGLE COUNTY,IL,61020,WASTE MANAGEMENT INC,129482
90,2023,ADVANCED DISPOSAL VALLEY VIEW LANDFILL INC,39.822266,-89.043754,DECATUR,MACON COUNTY,IL,62522,WASTE MANAGEMENT INC,29067
91,2023,ADVANSIX INC - CHESTERFIELD PLANT,37.336111,-77.2825,CHESTER,CHESTERFIELD COUNTY,VA,23836,ADVANSIX INC,60212
92,2023,ADVANSIX INCORPORATED - HOPEWELL,37.1815,-77.1621,HOPEWELL,HOPEWELL CITY,VA,23860,ADVANSIX INC,1227774
93,2023,AEP Corporate SF6 Emissions,39.588493,-81.682523,Columbus,WASHINGTON COUNTY,OH,43215,AMERICAN ELECTRIC POWER CO INC (94.6%); ELECTRIC TRANSMISSION TEXAS LLC (,191571
94,2023,AES - PUERTO RICO COGENERATION PLANT,17.945,-66.15027,GUAYAMA,GUAYAMA MUNICIPIO,PR,785,AES CORP,3170977
95,2023,AES Alamitos,33.7688,-118.1009,LONG BEACH,Los Angeles,CA,90803,AES CORP,1519042
96,2023,AES Huntington Beach,33.6436,-117.9788,HUNTINGTON BEACH,Orange,CA,92646,AES CORP,1275616
97,2023,AES Redondo Beach,33.8504,-118.395,REDONDO BEACH,Los Angeles,CA,90277,AES CORP,268950
98,2023,AES Warrior Run,39.5944,-78.7456,CUMBERLAND,Allegany,MD,21502,AES CORP,781434
99,2023,AFTON CHEMICAL CORP,38.60055,-90.1729,SAUGET,ST. CLAIR COUNTY,IL,62201,NEWMARKET CORP,47112
100,2023,AG Energy,44.7258,-75.4417,Ogdensburg,ST. LAWRENCE COUNTY,NY,13669,AG ENERGY PARTNERS LP,5752
101,2023,AG PROCESSING INC,43.10102,-94.65419,EMMETSBURG,PALO ALTO COUNTY,IA,50536,AG PROCESSING INC A COOPERATIVE,23462
102,2023,AG PROCESSING INC-EAGLE GROVE,42.669167,-93.904444,EAGLE GROVE,WRIGHT COUNTY,IA,50533,AG PROCESSING INC A COOPERATIVE,70515
103,2023,AG PROCESSING INC-SHELDON,43.182248,-95.856177,SHELDON,O'BRIEN COUNTY,IA,51201,AG PROCESSING INC A COOPERATIVE,27848
104,2023,AG PROCESSING INCORPORATED A COOPERATIVE,44.93265,-96.056491,DAWSON,LAC QUI PARLE COUNTY,MN,56232,AG PROCESSING INC A COOPERATIVE,38892
105,2023,AGC FLAT GLASS N AMERICA INC,37.70035,-84.26846,RICHMOND,MADISON COUNTY,KY,40475,AGC AMERICA INC,90786
106,2023,AGP SOY/CORN PROCESSING,40.58971,-98.33974,HASTINGS,ADAMS COUNTY,NE,68901,AG PROCESSING INC A COOPERATIVE,179938
107,2023,AGRI ENERGY LLC,43.648333,-96.224444,LUVERNE,ROCK COUNTY,MN,56156,GEVO INC,10
108,2023,AGRIUM US BORGER NITROGEN OPERATIONS,35.6411,-101.4203,BORGER,HUTCHINSON COUNTY,TX,79007,AGRIUM US INC,736028
109,2023,AGRIUM US INC - KFO,46.165957,-119.017218,KENNEWICK,BENTON COUNTY,WA,99337,AGRIUM US INC,13400
110,2023,AHN Heartland Ingredients,41.14375,-92.647694,EDDYVILLE,MONROE COUNTY,IA,52553,AJINOMOTO HEALTH & NUTRITION NORTH AMERICA INC,104073
111,2023,"AIR LIQUID LARGE INDUSTRIES US, LP",33.905833,-118.401944,EL SEGUNDO,LOS ANGELES COUNTY,CA,90245,AMERICAN AIR LIQUIDE HOLDINGS INC,617757
112,2023,AIR LIQUIDE - CORPUS CHRISTI SMR,27.813911,-97.472347,CORPUS CHRISTI,NUECES COUNTY,TX,78407,AMERICAN AIR LIQUIDE HOLDINGS INC,342879
113,2023,AIR LIQUIDE - FREEPORT HYCO PLANT,28.98037,-95.38396,FREEPORT,BRAZORIA COUNTY,TX,77541,AMERICAN AIR LIQUIDE HOLDINGS INC,175600
114,2023,AIR LIQUIDE - PORT NECHES ASU COGENERATION PLANT,29.981116,-93.952389,PORT NECHES,JEFFERSON COUNTY,TX,77651,AMERICAN AIR LIQUIDE HOLDINGS INC,2423
115,2023,AIR LIQUIDE AMERICA CORP,32.4478,-94.6875,LONGVIEW,HARRISON COUNTY,TX,75602,AMERICAN AIR LIQUIDE HOLDINGS INC,481525
116,2023,AIR LIQUIDE AMERICA CORP.,30.21023,-90.99085,GEISMAR,ASCENSION PARISH,LA,70734,AMERICAN AIR LIQUIDE HOLDINGS INC,370413
117,2023,AIR LIQUIDE GEISMAR UTILITY SERVICES,30.216085,-91.002699,GEISMAR,ASCENSION PARISH,LA,70734,AMERICAN AIR LIQUIDE HOLDINGS INC,130130
118,2023,AIR LIQUIDE LARGE INDUSTRIES US LP - RODEO HYDROGEN PLANT,38.047952,-122.256895,RODEO,CONTRA COSTA COUNTY,CA,94572,AMERICAN AIR LIQUIDE HOLDINGS INC,821122
119,2023,AIR PRODUCTS & CHEMICAL INC - LAKE CHARLES FACILITY,30.237363,-93.285908,WESTLAKE,CALCASIEU PARISH,LA,70669,AIR PRODUCTS & CHEMICALS INC,794369
120,2023,AIR PRODUCTS & CHEMICALS INC - Geismar SMR,30.18379,-90.98836,GEISMAR,ASCENSION PARISH,LA,70734,AIR PRODUCTS & CHEMICALS INC,55611
121,2023,AIR PRODUCTS & CHEMICALS INC - INDUSTRIAL GAS PRODUCTION FACILITY,30.022255,-89.900984,NEW ORLEANS,ORLEANS PARISH,LA,70129,AIR PRODUCTS & CHEMICALS INC,261745
122,2023,AIR PRODUCTS & CHEMICALS INC MARTINEZ WATERFRONT ROAD,38.032767,-122.07594,MARTINEZ,CONTRA COSTA COUNTY,CA,94553,AIR PRODUCTS & CHEMICALS INC,609353
123,2023,"AIR PRODUCTS & CHEMICALS, INC, Tesoro Martinez",38.026667,-122.067222,MARTINEZ,CONTRA COSTA COUNTY,CA,94553,AIR PRODUCTS & CHEMICALS INC,34812
124,2023,AIR PRODUCTS AND CHEMICALS INC - CATLETTSBURG HYDROGEN PLANT,38.37673,-82.60581,CATLETTSBURG,BOYD COUNTY,KY,41129,AIR PRODUCTS & CHEMICALS INC,147006
125,2023,AIR PRODUCTS AND CHEMICALS INC - GARYVILLE,30.09959,-90.648851,GARYVILLE,ST. JOHN THE BAPTIST PARISH,LA,70051,AIR PRODUCTS & CHEMICALS INC,987351
126,2023,AIR PRODUCTS AND CHEMICALS INCORPORATED,38.529722,-121.398889,SACRAMENTO,SACRAMENTO COUNTY,CA,95826,AIR PRODUCTS & CHEMICALS INC,43250
127,2023,AIR PRODUCTS BAYTOWN PLANT,29.757778,-95.023056,BAYTOWN,HARRIS COUNTY,TX,77520,AIR PRODUCTS & CHEMICALS INC,56939
128,2023,AIR PRODUCTS CARSON HYDROGEN PLANT,33.812778,-118.231389,CARSON,LOS ANGELES COUNTY,CA,90810,AIR PRODUCTS & CHEMICALS INC,657458
129,2023,AIR PRODUCTS TEXAS CITY FACILITY,29.381111,-94.899672,Texas City,GALVESTON COUNTY,TX,77590,AIR PRODUCTS & CHEMICALS INC,41289
130,2023,AIR PRODUCTS WILMINGTON HYDROGEN PLANT,33.780833,-118.241111,WILMINGTON,LOS ANGELES COUNTY,CA,90744,AIR PRODUCTS & CHEMICALS INC,827474
131,2023,AJAX PLANT,35.546399,-100.116256,Wheeler,Unknown,TX,79014,PRODUCERS MIDSTREAM II LLC,38739
132,2023,AKER PLANT,31.91,-96.2233,STREETMAN,FREESTONE COUNTY,TX,75859,M6 Midstream LLC,39758
133,2023,AKRON REGIONAL LANDFILL *,41.151282,-81.559298,AKRON,SUMMIT COUNTY,OH,44313,WASTE MANAGEMENT INC,1533
134,2023,AL CORN CLEAN FUEL,44.049412,-93.017379,CLAREMONT,DODGE COUNTY,MN,55924,AL-CORN CLEAN FUEL,193607
135,2023,AL Sandersville,33.1189,-82.8608,WARTHEN,Washington,GA,31094,AL SANDERSVILLE LLC,66586
136,2023,"ALABAMA RIVER CELLULOSE, LLC",31.580112,-87.490073,PERDUE HILL,MONROE COUNTY,AL,36470,KOCH INDUSTRIES INC,378850
137,2023,ALADDIN MILLS - ANTIOCH RD PLA NT,34.73399,-84.94646,DALTON,WHITFIELD COUNTY,GA,30720,MOHAWK INDUSTRIES INC,35443
138,2023,ALBANY LANDFILL,42.70324,-73.84958,ALBANY,ALBANY COUNTY,NY,12205,CITY OF ALBANY NEW YORK,42755
139,2023,ALBEMARLE CORPORATION HOUSTON PLANT,29.742498,-95.165513,PASADENA,HARRIS COUNTY,TX,77503,ALBEMARLE CORP,43256
140,2023,ALBEMARLE CORPORATION-SOUTH PLANT,33.1756,-93.2169,MAGNOLIA,COLUMBIA COUNTY,AR,71753,ALBEMARLE CORP,73523
141,2023,ALCOA INC - WARRICK OPERATIONS,37.915,-87.3328,NEWBURGH,WARRICK COUNTY,IN,47629,ALCOA CORP,4867519
142,2023,ALCOA INTALCO WORKS,48.8455,-122.7055,FERNDALE,WHATCOM COUNTY,WA,98248,ALCOA CORP,8533
143,2023,ALCOA-MARYVILLE-BLOUNT COUNTY LANDFILL,35.73834,-84.05978,Friendsville,BLOUNT COUNTY,TN,37737,COUNTY OF BLOUNT TENNESSEE (40%); CITY OF ALCOA TENNESSEE (30%); CITY OF MARYVILLE TENNESSEE,91615
144,2023,ALL PURPOSE LANDFILL,37.4135,-121.9724,SANTA CLARA,SANTA CLARA COUNTY,CA,95050,CITY OF SANTA CLARA CALIFORNIA,39544
145,2023,ALLEGANY BALLISTICS LABORATORY,39.56097,-78.84361,KEYSER,MINERAL COUNTY,WV,26726,NORTHROP GRUMMAN CORP,23245
146,2023,ALLEN COUNTY PUBLIC WORKS,37.901209,-95.280776,LA HARPE,ALLEN COUNTY,KS,66751,COUNTY OF ALLEN KANSAS,65882
147,2023,ALLIANCE COMPRESSOR STATION,33.03512,-97.331434,JUSTIN,DENTON COUNTY,TX,76247,CRESTWOOD EQUITY PARTNERS LP,48988
148,2023,ALLIANCE PIPELINE - OLIVIA 23-A,44.8491,-94.8969,BIRD ISLAND,RENVILLE COUNTY,MN,55310,"Alliance Pipeline, Inc (50%); Enbridge (US) Inc",86136
149,2023,ALLIANCE PIPELINE L.P. - MANCHESTER,42.46915,-91.55145,MANCHESTER,DELAWARE COUNTY,IA,52057,"Alliance Pipeline, Inc (50%); Enbridge (US) Inc",82855
150,2023,ALLIANCE PIPELINE LP-Tampico,41.592546,-89.784245,TAMPICO,WHITESIDE COUNTY,IL,61283,"Alliance Pipeline, Inc (50%); Enbridge (US) Inc",60344
151,2023,"ALLIANCE PIPELINE, L.P.-FAIRMOUNT COMPRESSOR STATION",45.993367,-96.648999,FAIRMOUNT,RICHLAND COUNTY,ND,58030,"Alliance Pipeline, Inc (50%); Enbridge (US) Inc",90855
152,2023,"ALLIANCE PIPELINE, L.P.-WIMBLEDON COMPRESSOR STATION",47.191058,-98.42561,WIMBLEDON,BARNES COUNTY,ND,58492,"Alliance Pipeline, Inc (50%); Enbridge (US) Inc",90406
153,2023,ALLIANCE SANI LDFL,41.3965,-75.7375,TAYLOR,LACKAWANNA COUNTY,PA,18517,WASTE MANAGEMENT INC,47985
154,2023,ALLIED IMPERIAL LANDFILL,32.854701,-115.52505,IMPERIAL,IMPERIAL COUNTY,CA,92251,REPUBLIC SERVICES INC,40169
155,2023,ALLISON GAS PLANT,35.60785,-100.10148,Allison,WHEELER COUNTY,TX,79003,PRODUCERS MIDSTREAM II LLC,42329
156,2023,"ALLISON TRANSMISSION, Inc.",39.779861,-86.240969,INDIANAPOLIS,MARION COUNTY,IN,46222,ALLISON TRANSMISSION HOLDINGS INC,26843
157,2023,ALLP Greenriver Basin,39.74762641,-104.9897734,Denver,Unknown,CO,80202,MARATHON PETROLEUM CORP,86654
158,2023,ALLP Uinta Basin,39.74762641,-104.9897734,Denver,Unknown,CO,80202,MARATHON PETROLEUM CORP,170182
159,2023,ALMATIS INC - BAUXITE ARKANSAS,34.57522,-92.53173,Benton,SALINE COUNTY,AR,72015,ALMATIS INC,61843
160,2023,ALON REFINING KROTZ SPRINGS INC,30.526504,-91.748383,KROTZ SPRINGS,ST. LANDRY PARISH,LA,70750,DELEK US HOLDINGS INC,633554
161,2023,"ALPEK POLYESTER MISSISSIPPI, INC.",30.233028,-89.561667,BAY SAINT LOUIS,HANCOCK COUNTY,MS,39520,"Alpek Polyester USA, LLC",56461
162,2023,"ALPEK POLYESTER USA, LLC",34.98305,-78.78722,FAYETTEVILLE,CUMBERLAND COUNTY,NC,28312,"Alpek Polyester USA, LLC",35596
163,2023,ALPHA RIDGE LANDFILL,39.30718,-76.89862,MARRIOTTSVILLE,HOWARD COUNTY,MD,21104,HOWARD COUNTY OF MARYLAND (INC),25772
164,2023,ALTIVIA Institute Facilities,38.384705,-81.776181,Dunbar,KANAWHA COUNTY,WV,25064,ALTIVIA SERVICES LLC,96979
165,2023,"ALTIVIA Petrochemicals, LLC - HAVERHILL COMPLEX",38.59167,-82.81944,HAVERHILL,SCIOTO COUNTY,OH,45636,ALTIVIA CORP,26878
166,2023,ALTO COLUMBIA LLC,45.855921,-119.656083,BOARDMAN,MORROW COUNTY,OR,97818,ALTO INGREDIENTS INC,38611
167,2023,ALTO MAGIC VALLEY LLC,42.521324,-113.815693,BURLEY,CASSIA COUNTY,ID,83318,ALTO INGREDIENTS INC,44427
168,2023,ALTON STEEL COMPANY,38.88321,-90.14503,ALTON,MADISON COUNTY,IL,62002,ALTON STEEL INC,24279
169,2023,ALYESKA PIPELINE SE/TAPS PUMP STATION 01,70.257222,-148.617778,PRUDHOE BAY,NORTH SLOPE BOROUGH,AK,99734,ALYESKA PIPELINE SERVICE CO,70995
170,2023,"ALYESKA PIPELINE SERVICE COMPANY, Valdez Marine Terminal",61.084857,-146.388531,VALDEZ,VALDEZ-CORDOVA CENSUS AREA,AK,99686,ALYESKA PIPELINE SERVICE CO,23798
171,2023,"AM/NS Calvert, LLC",31.146111,-87.992778,CALVERT,MOBILE COUNTY,AL,36513,AM/NS CALVERT LLC,564329
172,2023,AMALGAMATED SUGAR CO LLC,42.531995,-114.431448,TWIN FALLS,TWIN FALLS COUNTY,ID,83301,AMALGAMATED SUGAR CO,201358
173,2023,AMALGAMATED SUGAR CO LLC,42.611671,-113.757423,PAUL,MINIDOKA COUNTY,ID,83347,AMALGAMATED SUGAR CO OREGON COOPERATIVE CORP,282864
174,2023,AMALGAMATED SUGAR CO LLC,43.612136,-116.579232,NAMPA,CANYON COUNTY,ID,83687,AMALGAMATED SUGAR CO OREGON COOPERATIVE CORP,262054
175,2023,AMEA Sylacauga Plant,33.1661,-86.2825,SYLACAUGA,Talladega,AL,35150,ALABAMA MUNICIPAL ELECTRIC AUTHORITY,28404
176,2023,AMERICAN ACRYL PASADENA,29.608982,-95.054226,PASADENA,HARRIS COUNTY,TX,77507,ARKEMA DELAWARE INC (50%); NIPPON SHOKUBAI AMERICA INDUSTRIES INC,81719
177,2023,AMERICAN AIRLINES,36.204822,-95.868808,TULSA,TULSA COUNTY,OK,74116,AMERICAN AIRLINES GROUP INC,34262
178,2023,AMERICAN AVENUE LANDFILL,36.661764,-120.132645,KERMAN,FRESNO COUNTY,CA,93630,COUNTY OF FRESNO CALIFORNIA,123236
179,2023,AMERICAN CAST IRON PIPE CO,33.54698,-86.83465,BIRMINGHAM,JEFFERSON COUNTY,AL,35207,AMERICAN CAST IRON PIPE CO,169390
180,2023,AMERICAN COLLOID,44.86636,-104.1513,Colony,BUTTE COUNTY,WY,82710,MINERALS TECHNOLOGIES INC,53087
181,2023,AMERICAN CRYSTAL SUGAR - CROOKSTON,47.764625,-96.629975,CROOKSTON,POLK COUNTY,MN,56716,AMERICAN CRYSTAL SUGAR CO,304856
182,2023,AMERICAN CRYSTAL SUGAR - E GRAND FORKS,47.925833,-97.006111,EAST GRAND FORKS,POLK COUNTY,MN,56721,AMERICAN CRYSTAL SUGAR CO,327866
183,2023,AMERICAN CRYSTAL SUGAR - HILLSBORO,47.435833,-97.0625,HILLSBORO,TRAILL COUNTY,ND,58045,AMERICAN CRYSTAL SUGAR CO,488893
184,2023,AMERICAN CRYSTAL SUGAR - MOORHEAD,46.903056,-96.759722,MOORHEAD,CLAY COUNTY,MN,56560,AMERICAN CRYSTAL SUGAR CO,312834
185,2023,AMERICAN ENVIRONMENTAL LANDFILL,36.163345,-96.188988,SAND SPRINGS,OSAGE COUNTY,OK,74063,AMERICAN ENVIRONMENTAL LANDFILL INC,307075
186,2023,AMERICAN GYPSUM - BERNALILLO (WALLBOARD) PLANT,35.330083,-106.5275,BERNALILLO,SANDOVAL COUNTY,NM,87004,EAGLE MATERIALS INC,15755
187,2023,AMERICAN GYPSUM CO /GYPSUM WALLBOARD PLT,34.66029,-99.58732,DUKE,JACKSON COUNTY,OK,73532,EAGLE MATERIALS INC,92223
188,2023,AMERICAN GYPSUM COMPANY,39.658889,-106.956111,GYPSUM,EAGLE COUNTY,CO,81637,EAGLE MATERIALS INC,74893
189,2023,AMERICAN GYPSUM COMPANY,35.17237,-106.59347,ALBUQUERQUE,BERNALILLO COUNTY,NM,87113,EAGLE MATERIALS INC,46037
190,2023,AMERICAN REFINING GROUP INC,41.965472,-78.633108,BRADFORD,MCKEAN COUNTY,PA,16701,AMERICAN REFINING GROUP INC,122544
191,2023,AMERICAN SYNTHETIC RUBBER,38.209167,-85.843611,LOUISVILLE,JEFFERSON COUNTY,KY,40216,MICHELIN NORTH AMERICA INC,161361
192,2023,AMERICAS STYRENICS LLC - ST JAMES PLANT,30.08013,-90.916,ST. JAMES,ST. JAMES PARISH,LA,70086,CHEVRON CORP (50%); TRINSEO PLC,771321
193,2023,"AMGEN MANUFACTURING, LIMITED",18.2375,-65.907222,JUNCOS,JUNCOS MUNICIPIO,PR,777,AMGEN INC,61780
194,2023,AMP Fremont Energy Center,41.355909,-83.122007,Fremont,SANDUSKY COUNTY,OH,43420,AMERICAN MUNICIPAL POWER INC,1277562
195,2023,ANALOG DEVICES,45.59995,-122.45204,CAMAS,CLARK COUNTY,WA,98607,ANALOG DEVICES INC,18421
196,2023,ANCHOR ACQUISITION LLC MONACA PLT,40.69152,-80.2808,MONACA,BEAVER COUNTY,PA,15061,STOELZLE GLASS USA INC,34496
197,2023,ANCHOR HOCKING GLASS CO PLANT NO 1 *,39.71923,-82.61895,LANCASTER,FAIRFIELD COUNTY,OH,43130,ANCHOR HOCKING CO,75179
198,2023,ANCHORAGE REGIONAL LANDFILL,61.290401,-149.604757,EAGLE RIVER,ANCHORAGE MUNICIPALITY,AK,99577,MUNICIPALITY OF ANCHORAGE - SOLID WASTE SERVICE,175759
199,2023,ANDERSON LANDFILL,40.41754,-122.35787,ANDERSON,SHASTA COUNTY,CA,96007,WASTE MANAGEMENT INC,29170
200,2023,ANGELINA COUNTY WASTE MANAGEMENT CENTER,31.2525,-94.695,LUFKIN,ANGELINA COUNTY,TX,75901,COUNTY OF ANGELINA TEXAS,117220
201,2023,ANHEUSER BUSCH BALDWINSVILLE BREWERY,43.1691,-76.3112,BALDWINSVILLE,ONONDAGA COUNTY,NY,13027,ANHEUSER-BUSCH COS LLC,22488
202,2023,ANHEUSER BUSCH INC,40.103056,-82.993056,COLUMBUS,FRANKLIN COUNTY,OH,43229,ANHEUSER-BUSCH COS LLC,29822
203,2023,ANHEUSER BUSCH INC. - L.A. BREWERY,34.22132,-118.48044,VAN NUYS,LOS ANGELES COUNTY,CA,91406,ANHEUSER-BUSCH COS LLC,29572
204,2023,ANHEUSER BUSCH INCORPORATED FORT COLLINS BREWERY,40.619722,-105.006111,FORT COLLINS,LARIMER COUNTY,CO,80524,ANHEUSER-BUSCH COS LLC,35740
205,2023,ANHEUSER BUSCH LLC,37.237518,-76.652662,WILLIAMSBURG,JAMES CITY COUNTY,VA,23185,ANHEUSER-BUSCH COS LLC,29532
206,2023,ANHEUSER-BUSCH HOUSTON BREWERY,29.774444,-95.270833,HOUSTON,HARRIS COUNTY,TX,77029,ANHEUSER-BUSCH COS LLC,34778
207,2023,ANHEUSER-BUSCH LLC,30.432822,-81.647706,JACKSONVILLE,DUVAL COUNTY,FL,32218,ANHEUSER-BUSCH COS LLC,52175
208,2023,ANHEUSER-BUSCH LLC,42.822084,-71.488321,MERRIMACK,HILLSBOROUGH COUNTY,NH,3054,ANHEUSER-BUSCH COS LLC,10838
209,2023,"ANHEUSER-BUSCH, INC. CARTERSVI LLE BREWERY",34.2557,-84.7825,CARTERSVILLE,BARTOW COUNTY,GA,30120,ANHEUSER-BUSCH COS LLC,18719
210,2023,"ANHEUSER-BUSCH, INC. NEWARK BREWERY",40.6916,-74.1916,NEWARK,ESSEX COUNTY,NJ,7114,ANHEUSER-BUSCH COS LLC,20977
211,2023,ANN ARBOR SLF PHASE I & II,42.22703,-83.69976,ANN ARBOR,WASHTENAW COUNTY,MI,48108,CITY OF ANN ARBOR MICHIGAN,29611
212,2023,ANR Pipeline Alden CS,38.22602,-98.290368,ALDEN,RICE COUNTY,KS,67512,AMERICAN NATURAL RESOURCES CO,7025
213,2023,ANR Pipeline Birmingham CS,40.901819,-91.967609,BIRMINGHAM,JEFFERSON COUNTY,IA,52535,TRANSCANADA PIPELINE USA LTD,30814
214,2023,ANR Pipeline Blue Lake Complex Gas Storage Facility,44.8367,-84.9669,MANCELONA,KALKASKA COUNTY,MI,49659,TRANSCANADA PIPELINE USA LTD,36386
215,2023,ANR Pipeline Bridgman CS,41.897126,-86.534271,BRIDGMAN,BERRIEN COUNTY,MI,49106,TRANSCANADA PIPELINE USA LTD,26492
216,2023,ANR Pipeline Brownsville CS,35.631327,-89.189369,Brownsville,HAYWOOD COUNTY,TN,38012,TRANSCANADA PIPELINE USA LTD,38551
217,2023,ANR Pipeline Celestine CS,38.377528,-86.777306,Celestine,DUBOIS COUNTY,IN,47521,TRANSCANADA PIPELINE USA LTD,60557
218,2023,ANR Pipeline Cottage Grove CS,36.390381,-88.481323,Cottage Grove,HENRY COUNTY,TN,38224,TRANSCANADA PIPELINE USA LTD,44560
219,2023,ANR Pipeline Delhi CS,32.462407,-91.5611,Delhi,RICHLAND PARISH,LA,71232,TRANSCANADA PIPELINE USA LTD,39079
220,2023,ANR Pipeline E.G. Hill CS,36.30068,-101.615777,GRUVER,HANSFORD COUNTY,TX,79040,TRANSCANADA PIPELINE USA LTD,9261
221,2023,ANR Pipeline Enterprise CS,38.82909,-97.09359,ENTERPRISE,DICKINSON COUNTY,KS,67441,TRANSCANADA PIPELINE USA LTD,19838
222,2023,ANR Pipeline Eunice CS,30.466034,-92.520137,Eunice,ACADIA PARISH,LA,70535,TRANSCANADA PIPELINE USA LTD,82073
223,2023,ANR Pipeline Greensburg CS,37.61422,-99.396874,GREENSBURG,KIOWA COUNTY,KS,67054,TRANSCANADA PIPELINE USA LTD,23791
224,2023,ANR Pipeline Greenville CS,33.28468,-91.01969,Greenville,WASHINGTON COUNTY,MS,38703,TRANSCANADA PIPELINE USA LTD,42167
225,2023,ANR Pipeline Hamilton CS,42.668172,-85.956426,HAMILTON,ALLEGAN COUNTY,MI,49419,TRANSCANADA PIPELINE USA LTD,17252
226,2023,ANR Pipeline Jena CS,31.537914,-92.181442,Jena,LA SALLE PARISH,LA,71342,TRANSCANADA PIPELINE USA LTD,79726
227,2023,ANR Pipeline LaGrange CS,41.6413,-85.4685,LaGrange,LAGRANGE COUNTY,IN,46761,TRANSCANADA PIPELINE USA LTD,6125
228,2023,ANR Pipeline Lineville CS,40.630044,-93.540108,LINEVILLE,WAYNE COUNTY,IA,50147,TRANSCANADA PIPELINE USA LTD,7995
229,2023,ANR Pipeline Madisonville CS,37.3823,-87.6177,Madisonville,HOPKINS COUNTY,KY,77002,TRANSCANADA PIPELINE USA LTD,51492
230,2023,ANR Pipeline Maitland CS,40.175383,-95.122361,MAITLAND,HOLT COUNTY,MO,64466,TRANSCANADA PIPELINE USA LTD,39487
231,2023,ANR Pipeline Meade CS,37.078655,-100.47068,Meade,MEADE COUNTY,KS,67864,TRANSCANADA PIPELINE USA LTD,12625
232,2023,ANR Pipeline Mermentau CS,30.1261,-92.6918,Lake Arthur,JEFFERSON DAVIS PARISH,LA,70546,TRANSCANADA PIPELINE USA LTD,64758
233,2023,ANR Pipeline Patterson CS,29.691875,-91.342885,PATTERSON,ST. MARY PARISH,LA,70392,TRANSCANADA PIPELINE USA LTD,26069
234,2023,ANR Pipeline Sandwich CS,41.6227,-88.58362,SANDWICH,KENDALL COUNTY,IL,60548,TRANSCANADA PIPELINE USA LTD,4084
235,2023,ANR Pipeline Sardis CS,34.422978,-90.117504,Sardis,PANOLA COUNTY,MS,38666,TRANSCANADA PIPELINE USA LTD,32427
236,2023,ANR Pipeline Turkey Creek CS,30.9397,-92.4244,Turkey Creek,EVANGELINE PARISH,LA,70585,TRANSCANADA PIPELINE USA LTD,44425
237,2023,ANR Pipeline Woodstock CS,42.298042,-88.495281,Woodstock,MCHENRY COUNTY,IL,60098,TRANSCANADA PIPELINE USA LTD,32160
238,2023,ANR Pipeline Woolfolk CS,43.6249,-85.3844,BIG RAPIDS,MECOSTA COUNTY,MI,49307,TRANSCANADA PIPELINE USA LTD,21276
239,2023,ANTELOPE VALLEY RECYCLING AND DISPOSAL FACILITY,34.5697,-118.1534,PALMDALE,LOS ANGELES COUNTY,CA,93551,WASTE MANAGEMENT INC,67443
240,2023,APACHE JUNCTION LANDFILL,33.377246,-111.528771,APACHE JUNCTION,PINAL COUNTY,AZ,85219,REPUBLIC SERVICES INC,32298
241,2023,APACHE NITROGEN PRODUCTS - PLANT,31.88,-110.24,St. David,COCHISE COUNTY,AZ,85630,FREEPORT-MCMORAN INC (50%); SOUTHWEST ENERGY LLC,415929
242,2023,"APEX ENVIRONMENTAL, LLC - SANITARY LANDFILL (0641000223)",40.432403,-80.911512,AMSTERDAM,JEFFERSON COUNTY,OH,43903,APEX ENVIRONMENTAL LLC,699295
243,2023,APEX REGIONAL LANDFILL,36.29423,-115.28183,LAS VEGAS,CLARK COUNTY,NV,89165,REPUBLIC SERVICES INC,74585
244,2023,"APG Polytech, LLC",38.663697,-82.16883,APPLE GROVE,MASON COUNTY,WV,25502,APG POLYTECH HOLDING,40458
245,2023,APPLEBY TREATER,31.6912,-94.5833,Appleby,NACOGDOCHES COUNTY,TX,75965,ENERGY TRANSFER LP,52032
246,2023,APPVION - APPLETON PLT,44.2729,-88.39311,APPLETON,OUTAGAMIE COUNTY,WI,54911,M2S GROUP INTERMEDIATE HOLDINGS INC,24684
247,2023,APR - Basin 430 - Gathering & Boosting,31.99954,-102.07847,Midland,MIDLAND COUNTY,TX,79701,APR OPERATING LLC,151754
248,2023,APR - Basin 430 - Production,32.000017,-102.078534,Midland,Unknown,TX,79701,APR OPERATING LLC,40854
249,2023,APS Saguaro Power Plant,32.5517,-111.3,RED ROCK,Pinal,AZ,85245,PINNACLE WEST CAPITAL CORP,127427
250,2023,APS West Phoenix Power Plant,33.4417,-112.1583,PHOENIX,Maricopa,AZ,85043,PINNACLE WEST CAPITAL CORP,1413917
251,2023,AR GLASS CONTAINER CORP,35.846639,-90.708361,JONESBORO,CRAIGHEAD COUNTY,AR,72401,GLASS ENERGY CO INC,34016
252,2023,ARBOR HILLS LANDFILL,42.406821,-83.556249,NORTHVILLE,WASHTENAW COUNTY,MI,48167,GFL ENVIRONMENTAL HOLDINGS (US) INC,191940
253,2023,ARCELORMITTAL TUBULAR PRODUCTS USA LLC,40.88135,-82.66758,SHELBY,RICHLAND COUNTY,OH,44875,ARCELORMITTAL HOLDINGS LLC,61587
254,2023,ARCHER DANIEL MIDLAND COMPANY,41.42139,-97.288612,COLUMBUS,PLATTE COUNTY,NE,68601,ARCHER DANIELS MIDLAND CO,1115108
255,2023,ARCHER DANIELS MIDLAND,44.47056,-95.78417,MARSHALL,LYON COUNTY,MN,56258,ARCHER DANIELS MIDLAND CO,165659
256,2023,ARCHER DANIELS MIDLAND,40.2853,-86.5479,FRANKFORT,CLINTON COUNTY,IN,46041,ARCHER DANIELS MIDLAND CO,50763
257,2023,ARCHER DANIELS MIDLAND COMPANY,40.86667,-96.619116,LINCOLN,LANCASTER COUNTY,NE,68507,ARCHER DANIELS MIDLAND CO,99125
258,2023,ARCHER DANIELS MIDLAND PROCESSING,48.062103,-100.924722,VELVA,MCHENRY COUNTY,ND,58790,ARCHER DANIELS MIDLAND CO,46348
259,2023,ARCONIC LAFAYETTE LLC,40.395778,-86.859639,LAFAYETTE,TIPPECANOE COUNTY,IN,47905,ARCONIC CORP,33755
260,2023,ARCONIC TENNESSEE OPERATIONS,35.811815,-83.969576,ALCOA,BLOUNT COUNTY,TN,37701,ARCONIC INC,208742
261,2023,ARDEN LDFL,40.208427,-80.264771,WASHINGTON,WASHINGTON COUNTY,PA,15301,WASTE MANAGEMENT INC,21666
262,2023,ARGOS CEMENT LLC. - ROBERTA PLANT,33.1043,-86.7985,CALERA,SHELBY COUNTY,AL,35040,ARGOS USA LLC,1058822
263,2023,ARGOS USA -Martinsburg,39.434879,-77.977911,MARTINSBURG,BERKELEY COUNTY,WV,25401,ARGOS USA LLC,846192
264,2023,ARIZONA STATE UNIVERSITY,33.42195,-111.935,TEMPE,MARICOPA COUNTY,AZ,85281,ARIZONA STATE UNIVERSITY,63883
265,2023,ARKALON ETHANOL LLC,37.107705,-100.796294,LIBERAL,SEWARD COUNTY,KS,67901,CONESTOGA ENERGY HOLDINGS LLC,104536
266,2023,ARKANSAS LIME COMPANY,35.794,-91.736,BATESVILLE,INDEPENDENCE COUNTY,AR,72501,US LIME & MINERALS INC,419338
267,2023,ARKANSAS STEEL ASSOCIATES,35.648518,-91.244662,NEWPORT,JACKSON COUNTY,AR,72112,ARKANSAS STEEL ASSOCIATES LLC,31147
268,2023,ARKEMA BEAUMONT PLANT,30.060226,-94.058976,BEAUMONT,JEFFERSON COUNTY,TX,77701,ARKEMA DELAWARE INC,84320
269,2023,ARKEMA INC CLEAR LAKE,29.62139,-95.06389,PASADENA,HARRIS COUNTY,TX,77507,ARKEMA DELAWARE INC,81833
270,2023,"ARKEMA, INC.",37.056699,-88.365727,CALVERT CITY,MARSHALL COUNTY,KY,42029,ARKEMA DELAWARE INC,105680
271,2023,ARKLATX BUSINESS UNIT-BASIN 260 (East TX Only),29.7537256,-95.3592814,Houston,Unknown,TX,77002,MAVERICK NATURAL RESOURCES LLC,42517
272,2023,ARLANXEO Orange Site,30.049622,-93.772226,Orange,ORANGE COUNTY,TX,77630,ARLANXEO USA HOLDINGS CORP,185625
273,2023,ARMSTRONG CEMENT & SUPPLY,40.7948,-79.70017,CABOT,BUTLER COUNTY,PA,16023,SNYDER ASSOCIATED COS INC,184561
274,2023,ARMSTRONG WORLD IND MARIETTA CEILING PLT,40.0586,-76.58845,MARIETTA,LANCASTER COUNTY,PA,17547,ARMSTRONG WORLD INDUSTRIES INC,69218
275,2023,ARMSTRONG WORLD INDUSTRIES INC.,30.408671,-87.250165,PENSACOLA,ESCAMBIA COUNTY,FL,32505,ARMSTRONG WORLD INDUSTRIES INC,24275
276,2023,ARTESIA GAS PLANT,32.7564,-104.2111,ARTESIA,EDDY COUNTY,NM,88210,PHILLIPS 66 (86.8%); ENBRIDGE (US) INC (,91379
277,2023,ASARCO LLC AMARILLO COPPER REFINERY,35.284716,-101.730177,AMARILLO,POTTER COUNTY,TX,79108,AMERICAS MINING CORP,446
278,2023,ASCEND PERFORMANCE MATERIALS CHOCOLATE BAYOU FACILITY,29.2567,-95.2144,ALVIN,BRAZORIA COUNTY,TX,77512,ASCEND PERFORMANCE MATERIALS HOLDINGS INC,553628
279,2023,ASCEND PERFORMANCE MATERIALS OPERATIONS LLC,34.2306,-82.05776,GREENWOOD,GREENWOOD COUNTY,SC,29646,SK CAPTITAL PARTNER II LP,50087
280,2023,ASEO Eagleford Gathering and Boosting,29.75835802,-95.36824299,Houston,Unknown,TX,77002,Cathexis Holdings,31349
281,2023,ASEO Eagleford Production Operations,29.75835802,-95.36824299,Houston,Unknown,TX,77002,Cathexis,128789
282,2023,ASH GROVE CEMENT CO-CHANUTE PLANT,37.698786,-95.459748,CHANUTE,NEOSHO COUNTY,KS,66720,CRH AMERICAS INC,1299990
283,2023,ASH GROVE CEMENT COMPANY,32.51993,-97.0068,MIDLOTHIAN,ELLIS COUNTY,TX,76065,CRH AMERICAS INC,642168
284,2023,ASH GROVE CEMENT COMPANY-DURKEE,44.542325,-117.42053,DURKEE,BAKER COUNTY,OR,97905,CRH AMERICAS INC,580299
285,2023,ASH GROVE CEMENT COMPANY-Louisville,41.005565,-96.154917,LOUISVILLE,CASS COUNTY,NE,68037,CRH AMERICAS INC,612375
286,2023,ASH GROVE CEMENT COMPANY-MONTANA CITY,46.54448,-111.92062,CLANCY,JEFFERSON COUNTY,MT,59634,CRH AMERICAS INC,323958
287,2023,ASH GROVE CEMENT COMPANY-SEATTLE,47.56799,-122.34255,SEATTLE,KING COUNTY,WA,98134,ASH GROVE CEMENT CO,367651
288,2023,ASH GROVE CEMENT-FOREMAN,33.6936,-94.4166,Foreman,LITTLE RIVER COUNTY,AR,71836,ASH GROVE CEMENT CO,884375
289,2023,ASHLEY Energy LLC,38.63639,-90.18108,SAINT LOUIS,ST. LOUIS CITY,MO,63102,ASHLEY ENERGY LLC,67251
290,2023,ASTORIA ENERGY LLC & ASTORIA ENERGY II LLC,40.7825,-73.8964,ASTORIA,QUEENS COUNTY,NY,11105,ASTORIA PROJECT PARTNERS LLC,3136190
291,2023,ATASCOCITA RECYCLING AND DISPOSAL FACILITY,29.95135,-95.24966,HUMBLE,HARRIS COUNTY,TX,77396,WASTE MANAGEMENT INC,258588
292,2023,ATHENS & CLARKE COUNTIES-DUNLAP ROAD LF,33.9257,-83.2634,WINTERVILLE,CLARKE COUNTY,GA,30683,UNIFIED GOVERNMENT OF ATHENS-CLARKE COUNTY GEORGIA,67720
293,2023,ATI LADISH LLC,42.947167,-87.8615,CUDAHY,MILWAUKEE COUNTY,WI,53110,ALLEGHENY TECHNOLOGIES INC,127480
294,2023,"ATI Specialty Materials, Monroe Plant",34.98548,-80.517139,MONROE,UNION COUNTY,NC,28110,ALLEGHENY TECHNOLOGIES INC,60858
295,2023,"ATLANTIC ALUMINA, GRAMERCY OPERATIONS",30.066583,-90.701823,GRAMERCY,ST. JAMES PARISH,LA,70052,GRAMERCY HOLDINGS I LLC,802950
296,2023,ATLANTIC COUNTY LANDFILL,39.41653,-74.54036,EGG HARBOR TOWNSHIP,ATLANTIC COUNTY,NJ,8234,ATLANTIC COUNTY UTILITIES AUTHORITY,40552
297,2023,ATLANTIC WASTE DISPOSAL INC - SUSSEX COUNTY LAND,37.061279,-77.177106,WAVERLY,SUSSEX COUNTY,VA,23890,WASTE MANAGEMENT INC,110284
298,2023,AUBURN SANITARY LANDFILL NO 2,42.95203,-76.5868,AUBURN,CAYUGA COUNTY,NY,13021,CITY OF AUBURN NEW YORK,1354
299,2023,AUDUBON METALS LLC,37.808762,-87.632861,HENDERSON,HENDERSON COUNTY,KY,42420,KOCH ENTERPRISES INC,49175
300,2023,AUGUSTA COUNTY SVC AUTHORITY LANDFILL,38.0781,-79.0635,STAUNTON,AUGUSTA COUNTY,VA,24401,COUNTY OF AUGUSTA VIRGINIA (57.73%); CITY OF WAYNESBORO VIRGINIA (21.86%); CITY OF STAUNTON VIRGINIA (2,104083
301,2023,AUSTIN WHITE LIME COMPANY MCNEIL PLANT & QUARRY,30.45407,-97.72091,AUSTIN,TRAVIS COUNTY,TX,78728,AUSTIN WHITE LIME CO,232313
302,2023,AUTUMN HILLS RECYCLING AND DISPOSAL FACILITY,42.780647,-85.920569,ZEELAND,OTTAWA COUNTY,MI,49464,WASTE MANAGEMENT INC,94369
303,2023,AUX SABLE LIQUID PRODUCTS INC,41.41305,-88.305556,MORRIS,GRUNDY COUNTY,IL,60450,AUX SABLE LIQUID PRODUCTS LP,290346
304,2023,AVA LANDFILL,43.461,-75.412,AVA,ONEIDA COUNTY,NY,13303,ONEIDA HERKIMER SOLID WASTE MANAGEMENT AUTHORITY INC,85640
305,2023,AVENAL REGIONAL LANDFILL,36.01195,-120.11535,AVENAL,KINGS COUNTY,CA,93204,AVENAL REGIONAL LANDFILL,23404
306,2023,AVINGER GAS PLANT,32.872582,-94.584072,Avinger,MARION COUNTY,TX,75630,M6 Midstream LLC,27656
307,2023,AZUSA LAND RECLAMATION CO INC INERT LF,34.11432,-117.92861,AZUSA,LOS ANGELES COUNTY,CA,91702,WASTE MANAGEMENT INC,167795
308,2023,Abbott Laboratories,32.896,-111.7848,Casa Grande,PINAL COUNTY,AZ,85193,ABBOTT LABORATORIES,23170
309,2023,Abbott Nutrition,39.97553,-82.98999,Columbus,FRANKLIN COUNTY,OH,43215,ABBOTT LABORATORIES,27099
310,2023,Abbott Nutrition - A Division of Abbott Laboratories,37.13375,-79.26404,ALTAVISTA,CAMPBELL COUNTY,VA,24517,ABBOTT LABORATORIES,30662
311,2023,Aberdeen Generating Station,45.45807,-98.50242,Aberdeen,Unknown,SD,57401,NORTHWESTERN CORP,22998
312,2023,Abilene Environmental Landfill,32.523921,-99.750711,Abilene,JONES COUNTY,TX,79601,ABILENE ENVIRONMENTAL LANDFILL INC,36899
313,2023,Abilene Regional Landfill,32.534633,-99.753812,Abilene,JONES COUNTY,TX,79601,REPUBLIC SERVICES INC,116056
314,2023,Abraxas Petroleum 430 Permian Basin,31.56434,-102.796,San Antonio,Unknown,TX,78258,ABRAXAS PETROLEUM CORP,13060
315,2023,Acadia Power Station,30.4284,-92.4112,EUNICE,Acadia,LA,70535,CLECO CORPORATE HOLDINGS LLC (50%); ENTERGY CORP,2330335
316,2023,Acadian Gas Pipeline System,29.757726,-95.368822,Houston,HARRIS COUNTY,TX,77002,ENTERPRISE PRODUCTS PARTNERS LP,40679
317,2023,Accident Station,39.633667,-79.340479,Accident,GARRETT COUNTY,MD,21520,Enbridge (US) Inc,24516
318,2023,Ackerman Combined Cycle,33.38,-89.2091,ACKERMAN,Choctaw,MS,39735,US GOVERNME,927459
319,2023,Acme Brick - Denton Plant,33.188675,-97.135707,Denton,DENTON COUNTY,TX,76205,BERKSHIRE HATHAWAY INC,22056
320,2023,Acme Brick - Texas Clay Plants,32.166628,-96.017302,Malakoff,HENDERSON COUNTY,TX,75148,BERKSHIRE HATHAWAY INC,29751
321,2023,Ada County Solid Waste Management,43.723526,-116.269298,Boise,ADA COUNTY,ID,83714,COUNTY OF ADA IDAHO,88400
322,2023,Addis Carbon Black Plant,30.3288,-91.2792,Addis,WEST BATON ROUGE PARISH,LA,70710,TOKAI CARBON CB LTD,280795
323,2023,AdvanSix Resins & Chemicals LLC,40.0067,-75.0686,PHILADELPHIA,Philadelphia,PA,19137,ADVANSIX INC,159665
324,2023,Advanced Magnesium Alloys Corporation,40.085371,-85.658666,Anderson,MADISON COUNTY,IN,46013,PHOENIX GLOBAL HOLDINGS,230280
325,2023,"Advanced Tri-Gen Power Systems, LLC",40.843067,-89.564148,Chillicothe,PEORIA COUNTY,IL,61523,CATERPILLAR INC,96957
326,2023,Advancion Corporation,32.6907,-92.0826,STERLINGTON,OUACHITA PARISH,LA,71280,ARUBA INVESTMENTS INC,117619
327,2023,"Aemetis Advanced Fuels Keyes, Inc.",37.553007,-120.916475,Ceres,Unknown,CA,95307,AEMETIS INC,40569
328,2023,Aera Energy 25 Hill,35.09233,-119.407371,Maricopa,KERN COUNTY,CA,93252,"Oaktree Capital Group, LLC (9.6%); CPPIB Vedder US Holdings LLC (49%); IKAV Impact USA Inc (",46160
329,2023,Aera Energy Alberta Finley Shale,35.22925,-119.58286,Fellows,KERN COUNTY,CA,93224,"Oaktree Capital Group, LLC (9.6%); CPPIB Vedder US Holdings LLC (49%); IKAV Impact USA Inc (",77286
330,2023,Aera Energy Anderson Fitzgerald,35.299879,-119.742604,McKittrick,KERN COUNTY,CA,93251,"Oaktree Capital Group, LLC (9.6%); CPPIB Vedder US Holdings LLC (49%); IKAV Impact USA Inc (",234803
331,2023,Aera Energy Belridge,35.45306,-119.719337,McKittrick,KERN COUNTY,CA,93251,"Oaktree Capital Group, LLC (9.6%); CPPIB Vedder US Holdings LLC (49%); IKAV Impact USA Inc (",1285701
332,2023,Aera Energy Buena Fe,35.09233,-119.407371,Maricopa,KERN COUNTY,CA,93252,"Oaktree Capital Group, LLC (9.6%); CPPIB Vedder US Holdings LLC (49%); IKAV Impact USA Inc (",2015
333,2023,Aera Energy Calso,35.299879,-119.742604,McKittrick,KERN COUNTY,CA,93251,"Oaktree Capital Group, LLC (9.6%); CPPIB Vedder US Holdings LLC (49%); IKAV Impact USA Inc (",45130
334,2023,Aera Energy Coalinga,36.2459,-120.32813,Coalinga,FRESNO COUNTY,CA,93210,"Oaktree Capital Group, LLC (9.6%); CPPIB Vedder US Holdings LLC (49%); IKAV Impact USA Inc (",154737
335,2023,Aera Energy Coastal G and B,35.954969,-120.864089,San Ardo,MONTEREY COUNTY,CA,93450,"Oaktree Capital Group, LLC (9.6%); CPPIB Vedder US Holdings LLC (49%); IKAV Impact USA Inc (",2464
336,2023,Aera Energy Lockwood,35.09233,-119.407371,Maricopa,KERN COUNTY,CA,93525,"Oaktree Capital Group, LLC (9.6%); CPPIB Vedder US Holdings LLC (49%); IKAV Impact USA Inc (",5157
337,2023,Aera Energy Lost Hills,35.299879,-119.742604,McKittrick,KERN COUNTY,CA,93251,"Oaktree Capital Group, LLC (9.6%); CPPIB Vedder US Holdings LLC (49%); IKAV Impact USA Inc (",147714
338,2023,Aera Energy MOCO,35.09233,-119.407371,Maricopa,KERN COUNTY,CA,93252,"Oaktree Capital Group, LLC (9.6%); CPPIB Vedder US Holdings LLC (49%); IKAV Impact USA Inc (",92950
339,2023,Aera Energy Metson,35.09233,-119.407371,Maricopa,KERN COUNTY,CA,93252,"Oaktree Capital Group, LLC (9.6%); CPPIB Vedder US Holdings LLC (49%); IKAV Impact USA Inc (",21525
340,2023,Aera Energy Penn Zier,36.2459,-120.32813,Coalinga,FRESNO COUNTY,CA,93210,"Oaktree Capital Group, LLC (9.6%); CPPIB Vedder US Holdings LLC (49%); IKAV Impact USA Inc (",45239
341,2023,Aera Energy San Ardo,35.954969,-120.864089,San Ardo,MONTEREY COUNTY,CA,93450,"Oaktree Capital Group, LLC (9.6%); CPPIB Vedder US Holdings LLC (49%); IKAV Impact USA Inc (",293762
342,2023,Aera Energy San Joaquin Basin,35.1268513,-119.1855785,Bakersfield,Unknown,CA,93311,"Oaktree Capital Group, LLC (9.6%); CPPIB Vedder US Holdings LLC (49%); IKAV Impact USA Inc (",14138
343,2023,Aera Energy San Joaquin G and B,35.33988,-119.11274,Bakersfield,KERN COUNTY,CA,93311,"Oaktree Capital Group, LLC (9.6%); CPPIB Vedder US Holdings LLC (49%); IKAV Impact USA Inc (",51651
344,2023,Aera Energy Wier Gore Maxwell,35.22925,-119.58286,Fellows,KERN COUNTY,CA,93224,"Oaktree Capital Group, LLC (9.6%); CPPIB Vedder US Holdings LLC (49%); IKAV Impact USA Inc (",38839
345,2023,Aethon Energy Operating-230-Arkla Basin,32.9208727,-96.7734911,Dallas,Unknown,TX,75251,AETHON UNITED BR LP,208603
346,2023,Aethon Energy Operating-260-East Texas Basin,32.91606,-96.773085,Dallas,Unknown,TX,75251,AETHON UNITED BR LP,306010
347,2023,Aethon Energy Operating-530-Wind River Basin,43.182208,-107.541229,Lysite,Fremont,WY,82642,AETHON UNITED BR LP,96195
348,2023,Afton Generating Station,32.1134,-106.848,LA MESA,Dona Ana,NM,88044,PNM RESOURCES INC,575637
349,2023,Ag Processing Inc,45.474311,-98.416005,Aberdeen,BROWN COUNTY,SD,57401,AG PROCESSING INC A COOPERATIVE,55627
350,2023,Ag Processing Inc,42.305176,-96.362271,Sergeant Bluff,WOODBURY COUNTY,IA,51054,AG PROCESSING INC A COOPERATIVE,65183
351,2023,"Aggregate Industries SWR, Inc. - Utelite Plant",40.71635,-111.44104,Coalville,SUMMIT COUNTY,UT,84017,LAFARGEHOLCIM LTD,48519
352,2023,Agropur,42.709612,-114.527559,Jeorme,JEROME COUNTY,ID,83338,AGROPUR INC,30475
353,2023,Agropur Inc.,44.556959,-87.764596,Luxemburg,BROWN COUNTY,WI,54217,AGROPUR INC,28456
354,2023,"Agropur, Inc.",44.579444,-97.210556,Lake Norden,HAMLIN COUNTY,SD,57248,AGROPUR INC,49285
355,2023,Agua Dulce,27.747164,-97.818037,Robstown,Unknown,TX,78380,Enbridge (US) Inc,253109
356,2023,Agua Dulce Compressor Station,29.76003,-95.36387,HOUSTON,HARRIS COUNTY,TX,77002,KINDER MORGAN INC,141430
357,2023,Agua Fria Generating Station,33.5542,-112.2161,GLENDALE,Maricopa,AZ,85303,SALT RIVER PROJECT AGRICULTURAL IMPROVEMENT & POWER DISTRICT,97741
358,2023,Agua Mansa Power,34.0414,-117.3603,COLTON,San Bernardino,CA,92324,CITY OF COLTON CALIFORNIA,6120
359,2023,Ahlstrom Mosinee LLC,44.7887,-89.6943,MOSINEE,MARATHON COUNTY,WI,54455,AHLSTROM-MUNKSJO NORTH AMERICA SPECIALTY SOLUTIONS LLC,201415
360,2023,Ahlstrom NA Specialty Solutions LLC,44.2829,-88.2518,KAUKAUNA,OUTAGAMIE COUNTY,WI,54130,AHLSTROM-MUNKSJO NORTH AMERICA SPECIALTY SOLUTIONS LLC,217180
361,2023,Ahlstrom NA Specialty Solutions LLC,45.6391,-89.421,RHINELANDER,ONEIDA COUNTY,WI,54501,AHLSTROM-MUNKSJO NORTH AMERICA SPECIALTY SOLUTIONS LLC,118121
362,2023,Ahlstrom North America SPECIALTY SOLUTIONS,44.44737,-88.06851,DEPERE,BROWN COUNTY,WI,54115,AHLSTROM-MUNKSJO NORTH AMERICA SPECIALTY SOLUTIONS LLC,49418
363,2023,Air Liquide Hydrogen Plant,48.467675,-122.553982,Anacortes,SKAGIT COUNTY,WA,98221,AMERICAN AIR LIQUIDE HOLDINGS INC,72277
364,2023,Air Liquide Large Industries US - SMR,29.621469,-95.044198,Pasadena,HARRIS COUNTY,TX,77507,AMERICAN AIR LIQUIDE HOLDINGS INC,399378
365,2023,Air Liquide North Las Vegas Liquid Hydrogen Plant,36.31623,-114.986163,North Las Vegas,CLARK COUNTY,NV,89165,AMERICAN AIR LIQUIDE HOLDINGS INC,87383
366,2023,Air Products - Geismar 3 HYCO,30.19641,-91.01745,Geismar,ASCENSION PARISH,LA,70734,AIR PRODUCTS & CHEMICALS INC,239814
367,2023,Air Products Baytown 3 Facility,29.752,-94.909222,Baytown,CHAMBERS COUNTY,TX,77523,AIR PRODUCTS & CHEMICALS INC,1020473
368,2023,Air Products H2 SMR Plant at DCRC (Unit 37),39.580271,-75.631114,Delaware City,NEW CASTLE COUNTY,DE,19706,AIR PRODUCTS & CHEMICALS INC,246813
369,2023,Air Products LLC - Corpus Christi,27.810323,-97.458049,Corpus Christi,NUECES COUNTY,TX,78407,AIR PRODUCTS & CHEMICALS INC,160648
370,2023,Air Products LLC - Pasadena SMR,29.716011,-95.200573,Pasadena,HARRIS COUNTY,TX,77506,AIR PRODUCTS & CHEMICALS INC,491424
371,2023,Air Products La Porte Facility,29.702,-95.071,La Porte,HARRIS COUNTY,TX,77571,AIR PRODUCTS & CHEMICALS INC,51221
372,2023,Air Products Port Arthur Facility,29.8662,-93.97117,Port Arthur,JEFFERSON COUNTY,TX,77640,AIR PRODUCTS & CHEMICALS INC,2335031
373,2023,Air Products West Coast Hydrogen - HP-1,38.01330428,-122.1079648,Martinez,Unknown,CA,94553,AIR PRODUCTS & CHEMICALS INC,446432
374,2023,Air Products West Coast Hydrogen LLC - Torrance,33.8692,-118.33159,Torrance,LOS ANGELES COUNTY,CA,90504,AIR PRODUCTS & CHEMICALS INC,881225
375,2023,Air Products West coast Hydrogen - HP-2,38.01767958,-122.1185926,Martinez,Unknown,CA,94553,AIR PRODUCTS & CHEMICALS INC,322459
376,2023,Air Products and Chemicals - Norco SMR,30.0169,-90.40874,Norco,ST. CHARLES PARISH,LA,70079,AIR PRODUCTS & CHEMICALS INC,1102168
377,2023,Air Products and Chemicals Inc. Luling SMR Facility,29.93061,-90.34702,Luling,ST. CHARLES PARISH,LA,70070,AIR PRODUCTS & CHEMICALS INC,861624
378,2023,Air Products and Chemicals Inc./Detroit Hydrogen Facility Marathon Refinery,42.28689,-83.15642,Detroit,WAYNE COUNTY,MI,48217,AIR PRODUCTS & CHEMICALS INC,386199
379,2023,"Air Products and Chemicals, Inc. - BR SMR",30.488192,-91.164097,"Baton Rouge, La",EAST BATON ROUGE PARISH,LA,70805,AIR PRODUCTS & CHEMICALS INC,916362
380,2023,"Air Products and Chemicals, Inc. - Joliet, IL H2 Plant",41.417473,-88.216903,Channahon,WILL COUNTY,IL,60410,AIR PRODUCTS & CHEMICALS INC,94357
381,2023,Airgas Therapeutics LLC - Scott Medical Products,40.384845,-75.146286,Plumsteadville,BUCKS COUNTY,PA,18949,AIRGAS INC,2299
382,2023,"Ajinomoto Health & Nutrition NA, Inc.",35.77127,-78.56609,Raleigh,WAKE COUNTY,NC,27610,AJINOMOTO HEALTH & NUTRITION NORTH AMERICA INC,27664
383,2023,Akutan Seafood Processing Facility,54.132189,-165.786894,Akutan,Unknown,AK,99553,TRIDENT SEAFOODS CORP,46061
384,2023,Alamance County Landfill,35.9306,-79.2941,Graham,ALAMANCE COUNTY,NC,27253,COUNTY OF ALAMANCE NORTH CAROLINA,134682
385,2023,Alamo Gas Plant,31.299475,-95.518054,Crockett,HOUSTON COUNTY,TX,75835,ENERGY TRANSFER LP,147844
386,2023,Alamo San Antonio Cement Plant,29.61214,-98.375075,San Antonio,BEXAR COUNTY,TX,78266,ALAMO CEMENT CO,787292
387,2023,"Alaska Village Electric Cooperative, Inc.",61.17697,-149.87559,Anchorage,ANCHORAGE MUNICIPALITY,AK,99503,ALASKA VILLAGE ELECTRIC COOPERATIVE,31213
388,2023,Albany,31.54899,-84.248426,Dougherty,DOUGHERTY COUNTY,GA,31721,Enbridge (US) Inc,28330
389,2023,Albany Green Energy,31.443122,-84.118617,Albany,DOUGHERTY COUNTY,GA,31705,ALBANY GREEN ENERGY LLC,11245
390,2023,"Albert Einstein College of Medicine, Inc.",40.85112,-73.84435,Bronx,BRONX COUNTY,NY,10461,MONTEFIORE HEALTH SYSTEM INC,27396
391,2023,Alcoa USA Corp.,44.965835,-74.8935,Massena,ST. LAWRENCE COUNTY,NY,13662,ALCOA CORP,285852
392,2023,"Alcon Vision, LLC",32.65733,-97.32096,FORT WORTH,TARRANT COUNTY,TX,76134,ALCON LABORATORIES INC,23131
393,2023,Alderson Regional Landfill,34.894582,-95.686187,ALDERSON,PITTSBURG COUNTY,OK,74522,REPUBLIC SERVICES INC,17677
394,2023,Alex Ty Cooke Generating Station,33.5211,-101.7906,LUBBOCK,Lubbock,TX,79404,CITY OF LUBBOCK TEXAS TEXAS,3524
395,2023,Alexander City,33.005502,-85.899101,Alexander City,TALLAPOOSA COUNTY,AL,35010,Enbridge (US) Inc,149698
396,2023,"Alexander Orr, Jr. Water Treatment Plant",25.708072,-80.336146,MIAMI,MIAMI-DADE COUNTY,FL,33173,MIAMI-DADE WATER & SEWER,18508
397,2023,"Algonquin Power Sanger, LLC",36.685049,-119.55225,Sanger,FRESNO COUNTY,CA,93657,ALGONQUIN POWER SANGER LLC,8237
398,2023,"Algonquin Power Windsor Locks, LLC",41.9227,-72.6255,WINDSOR LOCKS,Hartford,CT,6096,ALGONQUIN POWER WINDSOR LOCKS LLC,87638
399,2023,Allegany Generating Station,42.5083,-78.0661,Portageville,Allegany,NY,14536,ALLIANCE ENERGY GROUP LLC,5778
400,2023,Allen,35.0742,-90.1439,MEMPHIS,Shelby,TN,38109,US GOVERNME,1939893
401,2023,Allen,34.866489,-96.352924,Allen,HUGHES COUNTY,OK,74825,ENERGY TRANSFER LP,45096
402,2023,Allen S King,45.03,-92.7786,OAK PARK HEIGHTS,Washington,MN,55003,XCEL ENERGY INC,998891
403,2023,Alliance Pipeline L.P. Albert Lea 25-A,43.64461,-93.15942,Albert Lea,FREEBORN COUNTY,MN,56007,"Alliance Pipeline, Inc (50%); Enbridge (US) Inc",85886
404,2023,Almond Power Plant,37.5739,-120.9854,MODESTO,Stanislaus,CA,95358,TURLOCK IRRIGATION DISTRICT EMPLOYEES ASSOC,106078
405,2023,Alon Bakersfield Refining,35.3809,-119.07242,Bakersfield,KERN COUNTY,CA,93308,GLOBAL CLEAN ENERGY,14704
406,2023,Alpaca Energy LLC,41.663988,-76.808492,Canton,BRADFORD COUNTY,PA,17724,ALPACA ENERGY LLC,25541
407,2023,"Alpek Polyester USA, LLC Columbia Site",33.866387,-81.012712,GASTON,CALHOUN COUNTY,SC,29053,"Alpek Polyester USA, LLC",67108
408,2023,"AlphaPET, Inc.",34.6416,-87.05203,Decatur,MORGAN COUNTY,AL,35601,ALPHAPET INC,44753
409,2023,Alpine Power Plant,45.063748,-84.825348,Elmira,OTSEGO COUNTY,MI,49730,WOLVERINE POWER SUPPLY COOPERATIVE INC,481753
410,2023,Alpont LLC,41.65919,-83.45071,Oregon,LUCAS COUNTY,OH,43616,ALPONT LLC,73769
411,2023,Alsey Station,39.5697,-90.4362,ALSEY,Scott,IL,62694,PRAIRIE POWER INC,11569
412,2023,"Altair Disposal Services, LLC",29.569298,-96.464242,Altair,COLORADO COUNTY,TX,77412,CLEAN HARBORS INC,24094
413,2023,Altamont Landfill & Resource Recovery Facility,37.723116,-121.682053,Livermore,ALAMEDA COUNTY,CA,94551,WASTE MANAGEMENT INC,203454
414,2023,Alto Compressor Station,32.3571275,-91.86115695,Rayville,Unknown,LA,71269,ENERGY TRANSFER LP,45031
415,2023,"Alto ICP, LLC",40.556501,-89.666235,PEKIN,TAZEWELL COUNTY,IL,61554,ALTO INGREDIENTS INC,163962
416,2023,"Alto Pekin, LLC",40.555,-89.6628,PEKIN,Tazewell,IL,61554,ALTO INGREDIENTS INC,348036
417,2023,Altus Gathering and Boosting,32.03449076,-102.0879966,Midland,Unknown,TX,79705,EAGLECLAW MIDSTREAM SERVICES LLC,262437
418,2023,Amber Junction Compressor Station,35.160203,-97.857536,AMBER,GRADY COUNTY,OK,73004,ENERGY TRANSFER LP,26699
419,2023,Ameredev II 430 Permian Basin,30.25108,-97.80019546,Austin,Unknown,TX,78746,Ameredev II LLC,38291
420,2023,Ameren Illinois,40.69045,-89.5924,Peoria,PEORIA COUNTY,IL,61602,AMEREN CORP,92479
421,2023,Ameren Illinois Electric,40.69048,-89.59244,Peoria,PEORIA COUNTY,IL,61602,AMEREN CORP,7609
422,2023,Ameren Missouri,38.620667,-90.211086,St. Louis,ST. LOUIS CITY,MO,63103,AMEREN CORP,15190
423,2023,Ameren Missouri Electric,38.620785,-90.211635,St. Louis,ST. LOUIS CITY,MO,63103,AMEREN CORP,5544
424,2023,American Canyon Landfill,38.1809,-122.281,American Canyon,NAPA COUNTY,CA,94503,NAPA VALLEGO WASTE MANAGEMENT AUTHORITY,33077
425,2023,American Crystal Sugar Company - Drayton,48.593129,-97.173682,Drayton,PEMBINA COUNTY,ND,58225,AMERICAN CRYSTAL SUGAR CO,370074
426,2023,American Eagle,38.0908,-81.5291,Cabin Creek,KANAWHA COUNTY,WV,25035,BLACKHAWK SUB LLC,143441
427,2023,American Soda LLC,41.5018,-109.758,GREEN RIVER,SWEETWATER COUNTY,WY,82935,SOLVAY HOLDING INC,970706
428,2023,"American Sugar Refining, Inc. - Baltimore Refinery",39.28023,-76.57112,BALTIMORE,BALTIMORE CITY,MD,21230,FANJUL CORP,108612
429,2023,"American Sugar Refining, Inc. - Yonkers Refinery",40.92564,-73.90465,Yonkers,WESTCHESTER COUNTY,NY,10705,FANJUL CORP,75865
430,2023,Ames,42.0247,-93.6069,AMES,Story,IA,50010,CITY OF AMES IOWA,236925
431,2023,Amherst County Landfill,37.47626,-79.03557,MADISON HEIGHTS,AMHERST COUNTY,VA,24521,COUNTY OF AMHERST,29580
432,2023,Amplify Energy Operating 260 East Texas Basin,29.7555,-95.3616,Houston,Unknown,TX,77002,MEMORIAL RESOURCE DEVELOPMENT LLC,120000
433,2023,"Amplify Energy Operating LLC 220 Gulf Coast Basin (LA, TX)",29.7555,-95.3616,Houston,Unknown,TX,77002,MEMORIAL RESOURCE DEVELOPMENT LLC,14148
434,2023,Amplify Energy Operation LLC 260 East Texas Basin GB,29.75788,-95.37013,Houston,HARRIS COUNTY,TX,77002,MEMORIAL RESOURCE DEVELOPMENT LLC,18260
435,2023,Amsted Graphite Materials LLC,39.25496,-80.29091,ANMOORE,HARRISON COUNTY,WV,26323,AMSTED INDUSTRIES INC,32682
436,2023,Anadarko,35.0847,-98.23,ANADARKO,Caddo,OK,73005,WESTERN FARMERS ELECTRIC COOPERATIVE,527567
437,2023,Anaheim Electric Distribution System,33.83458,-117.91401,Anaheim,ORANGE COUNTY,CA,92805,CITY OF ANAHEIM CALIFORNIA,2455
438,2023,Analog Devices Inc,45.502117,-122.824922,Willmington,WASHINGTON COUNTY,MA,1887,ANALOG DEVICES INC,60623
439,2023,"Analog Devices, Inc./ Wilmington Manufacturing",42.5307,-71.14958,Wilmington,MIDDLESEX COUNTY,MA,1887,ANALOG DEVICES INC,38727
440,2023,Anchor Glass Container - Plant 41,42.120763,-76.813168,ELMIRA HEIGHTS,CHEMUNG COUNTY,NY,14903,ANCHOR GLASS CONTAINER CORP,99284
441,2023,Anchor Glass Container Corporation - Plant 14,32.586745,-83.591784,WARNER ROBINS,HOUSTON COUNTY,GA,31088,ANCHOR GLASS CONTAINER CORP,61344
442,2023,Anchor Glass Container Corporation - Plant 15,35.447778,-95.962778,HENRYETTA,OKMULGEE COUNTY,OK,74437,ANCHOR GLASS CONTAINER CORP,95412
443,2023,Anchor Glass Container Corporation. - Plant 07,30.349681,-81.712584,JACKSONVILLE,DUVAL COUNTY,FL,32254,ANCHOR GLASS CONTAINER CORP,34644
444,2023,Anchor Glass Container Corporation. - Plant 12,44.79875,-93.46714,SHAKOPEE,SCOTT COUNTY,MN,55379,ANCHOR GLASS CONTAINER CORP,79976
445,2023,Anchor Glass Container. - Plant 42,39.125,-84.85545,LAWRENCEBURG,DEARBORN COUNTY,IN,47025,ANCHOR GLASS CONTAINER CORP,48752
446,2023,Anclote Power Plant,28.1844,-82.7887,HOLIDAY,Pasco,FL,34691,DUKE ENERGY CORP,1149387
447,2023,Anderson Regional Landfill,34.57226,-82.4603,Belton,ANDERSON COUNTY,SC,29627,WASTE CONNECTIONS US INC,243430
448,2023,Angelina Gas Plant,29.76055919,-95.36423775,Houston,Unknown,TX,77002,M6 Midstream LLC,142319
449,2023,Angus Anson,43.6033,-96.6369,SIOUX FALLS,Minnehaha,SD,57101,XCEL ENERGY INC,161253
450,2023,Anheuser-Busch LLC. - St. Louis Brewery,38.5961,-90.2128,St. Louis,ST. LOUIS CITY,MO,63118,ANHEUSER-BUSCH COS LLC,72071
451,2023,Anoka Municipal Regional Landfill,45.23715,-93.42943,Ramsey,ANOKA COUNTY,MN,55303,STATE OF MINNESOTA,29257
452,2023,Anschutz Exploration Corporation - Powder River Basin,43.73495,-105.404,Denver,Unknown,CO,80202,THE ANSCHUTZ CORP,334610
453,2023,Anson County Waste Management Facility,34.969177,-80.165185,Polkton,ANSON COUNTY,NC,28135,WASTE CONNECTIONS US INC,63836
454,2023,Antelope Station,33.866995,-101.866362,ABERNATHY,HALE COUNTY,TX,79311,GOLDEN SPREAD ELECTRIC COOPERATIVE INC,125720
455,2023,Antelope Valley,47.3714,-101.8344,BEULAH,Mercer,ND,58523,BASIN ELECTRIC POWER COOPERATIVE,5389116
456,2023,Antero Midstream LLC- 160 Basin,39.752016,-105.000734,Denver,DENVER COUNTY,CO,80202,ANTERO MIDSTREAM LLC,102792
457,2023,Antero Midstream LLC- 160A Basin,39.752016,-105.000734,Denver,DENVER COUNTY,CO,80202,ANTERO MIDSTREAM LLC,1894508
458,2023,Antero Resources - 160 - Appalachian Basin (Utica),39.7541032,-105.0002242,Denver,Unknown,CO,80202,ANTERO RESOURCES CORP,20739
459,2023,Antero Resources - 160A - Appalachian Basin (Eastern Overthurst Area),39.75231,-104.99906,Denver,Unknown,CO,80202,ANTERO RESOURCES CORP,200323
460,2023,Anton CO2 Re-Injection Facility,33.838556,-102.049972,Anton,HALE COUNTY,TX,79313,OCCIDENTAL PETROLEUM CORP,7102
461,2023,Apache Corporation - Gathering and Boosting Permian 430,29.7446,-95.4612,Houston,Unknown,TX,77056,APA CORP,756504
462,2023,Apache Corporation - Permian Basin 430,32.03544,-102.08652,Houston,Unknown,TX,77056,APA CORP,222479
463,2023,Apache Station,32.0619,-109.8931,COCHISE,Cochise,AZ,85606,ARIZONA ELECTRIC POWER COOPERATIVE INC,1458091
464,2023,"Apex Energy (PA), LLC",40.63491686,-80.06557715,Wexford,Unknown,PA,15090,Apex Energy LLC,32276
465,2023,Apex Generating Station,36.4178,-114.9622,LAS VEGAS,Clark,NV,89165,SOUTHERN CALIFORNIA PUBLIC POWER AUTHORITY,865094
466,2023,Appalachian Basin (Eastern Overthrust Area),29.93876,-95.3509,Spring,Unknown,TX,77389,SOUTHWESTERN ENERGY CO INC,1087263
467,2023,Appalachian Basin - AAPG Province 160A,41.241182,-77.0010648,Williamsport,Unknown,PA,17701,ARD OPERATING LLC,37743
468,2023,Appalachian Basin Gathering & Boosting - AAPG Province 160A,30.16115,-95.45389,Williamsport,Unknown,PA,17701,ARD OPERATING LLC,92545
469,2023,Arapaho,35.7481,-99.202,BUTLER,CUSTER COUNTY,OK,73625,MPLX LP,12704
470,2023,Arapahoe Combustion Turbine Facility,39.6692,-105.0018,DENVER,Denver,CO,80223,SOUTHWEST GENERATION OPERATING CO LLC,107556
471,2023,Arauco North America,44.5985,-84.6865,Grayling,CRAWFORD COUNTY,MI,49738,ARAUCO NORTH AMERICA INC,53907
472,2023,"Arauco North America, Inc.",34.383511,-92.725445,MALVERN,HOT SPRING COUNTY,AR,72104,ARAUCO NORTH AMERICA INC,37292
473,2023,ArcelorMittal Texas HBI,27.888611,-97.277778,Portland,SAN PATRICIO COUNTY,TX,78374,ARCELORMITTAL HOLDINGS LLC,556933
474,2023,Archer Daniels Midland,39.169552,-91.879288,Mexico,AUDRAIN COUNTY,MO,65265,ARCHER DANIELS MIDLAND CO,28540
475,2023,Archer Daniels Midland Co.,39.8675,-88.885,DECATUR,Macon,IL,62521,ARCHER DANIELS MIDLAND CO,3819217
476,2023,"Archer Daniels Midland Co. - Enderlin, ND",46.6137,-97.5769,Enderlin,RANSOM COUNTY,ND,58027,ARCHER DANIELS MIDLAND CO,33129
477,2023,Arconic US LLC,41.53115,-90.4682,BETTENDORF,SCOTT COUNTY,IA,52722,ARCONIC CORP,269183
478,2023,Arconic US LLC,40.063333,-76.320556,Lancaster,LANCASTER COUNTY,PA,17601,ARCONIC CORP,115844
479,2023,"Arcosa LW BR, LLC Livingston DIV",32.56486,-88.19967,LIVINGSTON,SUMTER COUNTY,AL,35470,ARCOSA INC,124551
480,2023,Arcosa Lightweight - Brooks Plant,38.0381,-85.7153,Shephersville,BULLITT COUNTY,KY,40165,ARCOSA INC,51444
481,2023,Arcosa Lightweight - Frazier Park,34.7666,-119.0447,Frazier Park,VENTURA COUNTY,CA,93225,ARCOSA INC,18585
482,2023,Arcosa Lightweight Indiana,39.52537,-86.37786,Mooresville,MORGAN COUNTY,IN,46158,ARCOSA INC,29274
483,2023,Ardagh Glass Inc. (Bridgeton),39.409,-75.21958,BRIDGETON,CUMBERLAND COUNTY,NJ,8302,ARDAGH GLASS INC,52230
484,2023,Ardagh Glass Inc. (Burlington),42.6626,-88.2906,BURLINGTON,RACINE COUNTY,WI,53105,ARDAGH GLASS INC,76121
485,2023,Ardagh Glass Inc. (Dolton),41.642117,-87.599663,DOLTON,COOK COUNTY,IL,60419,ARDAGH GLASS INC,79744
486,2023,Ardagh Glass Inc. (Dunkirk),40.371053,-85.198134,DUNKIRK,JAY COUNTY,IN,47336,ARDAGH GLASS INC,116955
487,2023,Ardagh Glass Inc. (Henderson),36.291066,-78.391883,Henderson,VANCE COUNTY,NC,27537,ARDAGH GLASS INC,77625
488,2023,Ardagh Glass Inc. (Madera),36.92375,-120.10151,MADERA,MADERA COUNTY,CA,93637,ARDAGH GLASS INC,71574
489,2023,Ardagh Glass Inc. (Pevely),38.29372,-90.39969,PEVELY,JEFFERSON COUNTY,MO,63070,ARDAGH GLASS INC,77743
490,2023,Ardagh Glass Inc. (Port Allegany),41.81787,-78.28699,PORT ALLEGANY,MCKEAN COUNTY,PA,16743,Ardagh Group Inc,61642
491,2023,Ardagh Glass Inc. (Ruston),32.543572,-92.766871,SIMSBORO,LINCOLN PARISH,LA,71275,ARDAGH GLASS INC,22865
492,2023,Ardagh Glass Inc. (Sapulpa),36.009924,-96.099233,SAPULPA,CREEK COUNTY,OK,74066,ARDAGH GLASS INC,97580
493,2023,Ardagh Glass Inc. (Seattle),47.551767,-122.337152,SEATTLE,KING COUNTY,WA,98134,ARDAGH GLASS INC,44364
494,2023,Ardagh Glass Inc. (Wilson),35.7602,-77.8826,WILSON,WILSON COUNTY,NC,27893,ARDAGH GLASS INC,44661
495,2023,Ardagh Glass Inc. (Winchester),40.173694,-84.971694,WINCHESTER,RANDOLPH COUNTY,IN,47394,ARDAGH GLASS INC,89036
496,2023,Ardagh Glass Packaging Inc. (Houston),29.76151,-95.25591,HOUSTON,HARRIS COUNTY,TX,77029,ARDAGH GLASS PACKAGING INC,59226
497,2023,Area 51 CGP Facility,28.651637,-98.000845,Pawnee,BEE COUNTY,TX,78145,ENTERPRISE PRODUCTS PARTNERS LP,81952
498,2023,Area 71 CGP Facility,28.651637,-98.000845,Pawnee,BEE COUNTY,TX,78145,ENTERPRISE PRODUCTS PARTNERS LP,51907
499,2023,Area 71B CGP Facility,28.9579,-97.6946,Nordheim,DEWITT COUNTY,TX,78141,ENTERPRISE PRODUCTS PARTNERS LP,51994
500,2023,Area 72 CGP Facility,28.651637,-98.000845,5911 County Road 136,BEE COUNTY,TX,78145,ENTERPRISE PRODUCTS PARTNERS LP,52195
501,2023,Arecibo Landfill,18.419506,-66.736735,Arecibo,ARECIBO MUNICIPIO,PR,612,MUNICIPALITY OF ARECIBO,127781
502,2023,Argos Cement LLC,29.690671,-82.582134,NEWBERRY,ALACHUA COUNTY,FL,32669,ARGOS USA LLC,808554
503,2023,Argos Cement LLC - Harleyville Plant,33.226205,-80.452832,HARLEYVILLE,DORCHESTER COUNTY,SC,29448,ARGOS USA LLC,617387
504,2023,"Argos, MMS Platform ID 02481, Complex ID 2665-1",27.17325833,-90.3656333,Offshore,Unknown,LA,0,BP AMERICA INC (60.5%); BHP MINERALS INTERNATIONAL LLC (23.9%); CHEVRON CORP (,134118
505,2023,Arizona Public Service Company,33.578425,-112.104408,Phoenix,MARICOPA COUNTY,AZ,85021,PINNACLE WEST CAPITAL CORP (85.75%); SALT RIVER PROJECT AGRICULTURAL IMPROVEMENT & POWER DISTRICT (7.83%); UNS ENERGY CORP (1.58%); LOS ANGELES DEPARTMENT OF WATER & POWER (1.18%); SAN DIEGO GAS & ELECTRIC (,9853
506,2023,Arkansas Loop & Simpson Treating Plants,37.0532,-107.7855,DURANGO,LA PLATA COUNTY,CO,81303,SOUTHERN UTE INDIAN TRIBE (51%); KINDER MORGAN INC,333442
507,2023,Arkoma,34.63339,-96.17768,Coalgate,COAL COUNTY,OK,74538,MPLX LP,21560
508,2023,Arlington Landfill,32.80776,-97.10376,Euless,TARRANT COUNTY,TX,76040,CITY OF ARLINGTON,67126
509,2023,Arlington Valley Energy Facility,33.3417,-112.8897,ARLINGTON,Maricopa,AZ,85322,ARLINGTON VALLEY LLC,1386239
510,2023,Armagh Compressor Station,40.4319,-79.085,NEW FLORENCE,Indiana,PA,15944,Enbridge (US) Inc,38154
511,2023,Armstrong Gas Plant,29.133889,-97.039161,Yoakum,DEWITT COUNTY,TX,77995,ENTERPRISE PRODUCTS PARTNERS LP,183637
512,2023,"Armstrong Power, LLC",40.6383,-79.3503,SHELOCTA,Armstrong,PA,15774,"LS Power Development, LLC",627235
513,2023,Armstrong World Industries Inc,32.773497,-83.6516,Macon,BIBB COUNTY,GA,31206,ARMSTRONG WORLD INDUSTRIES INC,78086
514,2023,Arnold Engineering Development Center,35.383056,-86.043611,Arnold AFB,COFFEE COUNTY,TN,37389,US GOVERNME,23195
515,2023,Arrowhead Gas Plant,31.2403011,-103.065333,Coyanosa,Unknown,TX,79730,ENERGY TRANSFER LP,156316
516,2023,Arrowhead Landfill,32.435714,-87.437716,Uniontown,PERRY COUNTY,AL,36786,ARROWHEAD ENVIRONMENTAL PARTNERS LLC,150094
517,2023,Arroyo Grande Production Facility,35.1814,-120.61965,SAN LUIS OBISPO,SAN LUIS OBISPO COUNTY,CA,93401,SENTINEL PEAK RESOURCES LLC,103076
518,2023,Arsenal Hill Power Plant,32.5181,-93.7611,SHREVEPORT,Caddo,LA,71101,AMERICAN ELECTRIC POWER CO INC,1438673
519,2023,Arsenal Midstream LLC 160A Appalachian Basin GB,40.63381,-80.0646,Wexford,ALLEGHENY COUNTY,PA,15090,ARSENAL ENERGY HOLDINGS LLC,43631
520,2023,"Arsenal Resources, LLC 160A Appalachian Basin",39.301158,-80.209822,Wexford,HARRISON COUNTY,PA,15090,ARSENAL ENERGY HOLDINGS LLC,34125
521,2023,Arthur Kill,40.5915,-74.2027,Staten Island,Richmond,NY,10314,ARCLIGHT ENERGY PARTNERS FUND VII LP,635388
522,2023,Arvah B Hopkins,30.4522,-84.4,TALLAHASSEE,Leon,FL,32304,CITY OF TALLAHASSEE FLORIDA,703691
523,2023,Ascend (Decatur Plant),34.6339,-87.0244,DECATUR,Morgan,AL,35601,ASCEND PERFORMANCE MATERIALS HOLDINGS INC,603219
524,2023,Ascend Performance Materials LLC,30.596678,-87.251977,Cantonment,ESCAMBIA COUNTY,FL,32533,ASCEND PERFORMANCE MATERIALS HOLDINGS INC,2329170
525,2023,Ascent Resources - Utica (160),35.565478,-97.518049,Oklahoma City,Unknown,OK,73113,ASCENT RESOURCES OPERATING LLC,84585
526,2023,Ascent Resources - Utica (160a),35.565478,-97.518049,Oklahoma City,Unknown,OK,73113,ASCENT RESOURCES OPERATING LLC,378473
527,2023,Ash Grove Cement Company-LEAMINGTON,39.508327,-112.262246,Nephi,Unknown,UT,84648,CRH AMERICAS INC,548943
528,2023,Asheville Steam Electric Plant,35.4714,-82.5431,ARDEN,Buncombe,NC,28704,DUKE ENERGY CORP,1455027
529,2023,Asotin County Regional Landfill,46.383767,-117.111887,Clarkston,ASOTIN COUNTY,WA,99403,ASOTIN COUNTY,60393
530,2023,Asphalt Hawaii Kalaeloa Asphalt Terminal,21.323561,-158.108519,Kapolei,HONOLULU COUNTY,HI,96707,ALEXANDER & BALDWIN INC (70%); JAS W GLOVER LTD,2
531,2023,Astoria Gas Turbine Power,40.7864,-73.9133,ASTORIA,Queens,NY,11105,NRG ENERGY INC,3837
532,2023,Astoria Generating Station,40.7869,-73.9122,ASTORIA,Queens,NY,11105,ARCLIGHT ENERGY PARTNERS FUND VI LP,489209
533,2023,Astoria Station,44.58012141,-96.5614106,Astoria,Unknown,SD,57213,OTTER TAIL CORP,227933
534,2023,Athens,39.24099,-82.12427,Athens,ATHENS COUNTY,OH,45701,Enbridge (US) Inc,80066
535,2023,Athens Generating Company,42.2728,-73.8492,ATHENS,Greene,NY,12015,NEW ATHENS GENERATING CO LLC,705858
536,2023,"Athens-Hocking Landfill, Inc.",39.45634,-82.279142,Nelsonville,ATHENS COUNTY,OH,45764,RUMPKE CONSOLIDATED COS INC,129003
537,2023,Atkinson County - S.R. 50 MSW Landfill,31.33676,-83.03276,Willachoochee,ATKINSON COUNTY,GA,31650,SOLID WASTE MANAGEMENT AUTHORITY OF ATKINSON COUNTY,58365
538,2023,Atlanta Gas Light Company,33.797114,-84.380489,Atlanta,FULTON COUNTY,GA,30309,THE SOUTHERN CO,177828
539,2023,"Atlantis, MMS Platform ID 02481, Complex ID 1223-1",27.19545638,-90.02698449,Offshore,Unknown,LA,0,BP AMERICA INC (56%); BHP MINERALS INTERNATIONAL LLC,256468
540,2023,Atlas Sand Kermit,31.94599038,-103.0094228,Kermit,Unknown,TX,79745,ATLAS ENERGY SOLUTIONS,63422
541,2023,Atlas Sand Monahans,31.81130341,-103.0730806,Kermit,Unknown,TX,79745,ATLAS SAND CO LLC,64941
542,2023,Atmos Energy Corporation - APT Howard,32.92548,-96.81613,Dallas,DALLAS COUNTY,TX,75240,ATMOS ENERGY CORP,66469
543,2023,Atmos Energy Corporation - Colorado,32.925488,-96.816137,Dallas,DALLAS COUNTY,TX,75240,ATMOS ENERGY CORP,21470
544,2023,Atmos Energy Corporation - Kansas,32.925488,-96.816137,Dallas,DALLAS COUNTY,TX,75240,ATMOS ENERGY CORP,24955
545,2023,Atmos Energy Corporation - Kentucky,32.92548,-96.81613,Dallas,DALLAS COUNTY,TX,75240,ATMOS ENERGY CORP,22876
546,2023,Atmos Energy Corporation - Louisiana,32.92548,-96.81613,Dallas,DALLAS COUNTY,TX,75240,ATMOS ENERGY CORP,53665
547,2023,Atmos Energy Corporation - Mississippi,32.925488,-96.816137,Dallas,DALLAS COUNTY,TX,75240,ATMOS ENERGY CORP,68155
548,2023,Atmos Energy Corporation - Tennessee,32.92548,-96.81613,Dallas,DALLAS COUNTY,TX,75240,ATMOS ENERGY CORP,19290
549,2023,Atmos Energy Corporation - Texas,32.925488,-96.816137,Dallas,DALLAS COUNTY,TX,75240,ATMOS ENERGY CORP,369202
550,2023,Atmos Energy Corporation- Virginia,32.925488,-96.816137,Dallas,DALLAS COUNTY,TX,75240,ATMOS ENERGY CORP,2693
551,2023,Atmos Pipeline Texas,32.92548,-96.81613,Dallas,DALLAS COUNTY,TX,75240,ATMOS ENERGY CORP,24261
552,2023,Atoka #1 Compressor Station,32.7813,-104.2265,Riverside,EDDY COUNTY,NM,88210,ENERGY TRANSFER LP,26115
553,2023,Attala Generating Plant,33.0142,-89.6758,SALLIS,Attala,MS,39160,ENTERGY CORP,1118035
554,2023,Aucilla Area Solid Waste Facility,30.4607,-83.6085,Greenville,MADISON COUNTY,FL,32331,AUCILLA AREA SOLID WASTE ADMINISTRATION,58081
555,2023,Audrain Power Plant,39.3092,-91.5369,VANDALIA,Audrain,MO,63382,AMEREN CORP,127954
556,2023,Auriga Polymers Inc.,35.027817,-81.87896,SPARTANBURG,SPARTANBURG COUNTY,SC,29307,INDORAMA VENTURES USA HOLDINGS LP,86691
557,2023,Aurora Ethanol Complex,40.86801,-98.0364,Aurora,HAMILTON COUNTY,NE,68818,AURORA COOPERATIVE ETHANOL,103041
558,2023,Aurora Generating Station,41.8151,-88.2265,AURORA,Dupage,IL,60504,"LS Power Development, LLC",218334
559,2023,Aurubis Buffalo Inc.,42.94765,-78.89284,Buffalo,ERIE COUNTY,NY,14207,AURUBIS BUFFALO INC,25393
560,2023,Australis TMS Inc. 210 Mid-Gulf Coast Basin,29.752554,-95.3704009,Houston,Unknown,TX,77002,AUSTRALIS TMS INC,22613
561,2023,Aux Sable Midstream - Palermo Conditioning Plant,48.301166,-102.220966,Palermo,MOUNTRAIL COUNTY,ND,58769,AUX SABLE MIDSTREAM LLC,12825
562,2023,Avago Technologies,40.5236,-105.02021,Fort Collins,LARIMER COUNTY,CO,80525,BROADCOM INC,34457
563,2023,Avant Natural Resources,39.75156201,-105.00221,Denver,Unknown,CO,80202,"Avant Natural Resources, LLC",147220
564,2023,Avista Corporation,47.66,-117.39,Spokane,SPOKANE COUNTY,WA,99220,AVISTA CORP,1438
565,2023,Avista Corporation-WA,47.66,-117.39,Spokane,SPOKANE COUNTY,WA,99220,AVISTA CORP,16268
566,2023,Avista Landfill,48.6001297,-118.0893892,Kettle Falls,STEVENS COUNTY,WA,99141,AVISTA CORP,6486
567,2023,Aztalan Bio LLC,43.035135,-88.791556,Johnson Creek,JEFFERSON COUNTY,WI,53038,AZTALAN BIO LLC,15063
568,2023,Azteca Milling - Evansville,38.01505905,-87.53933893,Evansville,Unknown,IN,47724,GRUMA CORP,43899
569,2023,Azteca Milling - Plainview,34.123449,-101.748651,Plainview,HALE COUNTY,TX,79072,GRUMA CORP,41589
570,2023,"B BRAUN MEDICAL, INC",33.6878,-117.8379,IRVINE,ORANGE COUNTY,CA,92614,B BRAUN MEDICAL US,46077
571,2023,BACKRIDGE LANDFILL,40.0161,-91.5217,LA GRANGE,LEWIS COUNTY,MO,63448,REPUBLIC SERVICES INC,25079
572,2023,BADAMI DEVELOPMENT FACILITY,70.150997,-147.097369,Badami Unit,Unknown,AK,99734,SAVANT ALASKA LLC,23787
573,2023,BADGER CREEK LIMITED,35.44735,-119.08652,BAKERSFIELD,KERN COUNTY,CA,93308,BADGER CREEK LTD,12078
574,2023,BADGER STATE ETHANOL,42.5949,-89.66691,MONROE,GREEN COUNTY,WI,53566,BADGER STATE ETHANOL LLC,111351
575,2023,BADLANDS SANITARY LANDFILL,33.9541,-117.1168,MORENO VALLEY,RIVERSIDE COUNTY,CA,92555,COUNTY OF RIVERSIDE CALIFORNIA,84301
576,2023,BAKERSFIELD METROPOLITAN SANITARY LANDFILL,35.422469,-118.708138,Edison,KERN COUNTY,CA,93220,COUNTY OF KERN CALIFORNIA,55561
577,2023,BALDWIN COUNTY SOLID WASTE,30.443309,-87.774276,SUMMERDALE,BALDWIN COUNTY,AL,36580,BALDWIN COUNTY SOLID WASTE,259618
578,2023,BALL STATE UNIVERSITY,40.19765,-85.40893,MUNCIE,DELAWARE COUNTY,IN,47306,STATE OF INDIANA,19020
579,2023,"BARGATH, INC.- PARACHUTE",39.487297,-108.111356,"PARACHUTE, 3.4 MI NW OF",GARFIELD COUNTY,CO,81635,THE WILLIAMS COS INC,215169
580,2023,BARROW UTILITIES & ELECTRIC,71.292071,-156.77847,BARROW,NORTH SLOPE BOROUGH,AK,99723,BARROW UTILITIES & ELECTRIC COOPERATIVE INC,62013
581,2023,BARSTOW SANITARY LANDFILL,34.837222,-117.017655,BARSTOW,SAN BERNARDINO COUNTY,CA,92311,SAN BERNARDINO COUNTY SOLID WASTE MANAGEMENT DIV,46101
582,2023,BARTHOLOMEW CO LANDFILL,39.224811,-85.800619,COLUMBUS,BARTHOLOMEW COUNTY,IN,47201,COUNTY OF BARTHOLOMEW INDIANA,17040
583,2023,BARTHOLOMEW COUNTY LANDFILL II,39.134761,-85.93343,COLUMBUS,BARTHOLOMEW COUNTY,IN,47201,COUNTY OF BARTHOLOMEW INDIANA,78388
584,2023,BARTON COUNTY SANITARY LANDFILL,38.4082,-98.7054,GREAT BEND,BARTON COUNTY,KS,67530,BARTON COUNTY KANSAS,37851
585,2023,BASF BEAUMONT AGRO PLANT,29.971389,-94.053333,BEAUMONT,JEFFERSON COUNTY,TX,77705,BASF CORP,46599
586,2023,BASF CORP - GEISMAR SITE,30.1979,-91.0035,GEISMAR,ASCENSION PARISH,LA,70734,BASF CORP,934158
587,2023,BASF CORP - PASADENA PLANT,29.731639,-95.152083,PASADENA,HARRIS COUNTY,TX,77501,BASF CORP,42022
588,2023,BASF CORP ATTAPULGUS OPS,30.738055,-84.49394,ATTAPULGUS,DECATUR COUNTY,GA,39815,BASF CORP,105244
589,2023,BASF CORP SAVANNAH OPERATIONS,32.078611,-81.054444,SAVANNAH,CHATHAM COUNTY,GA,31404,BASF CORP,53679
590,2023,BASF CORPORATION,31.2789,-88.0043,MC INTOSH,WASHINGTON COUNTY,AL,36553,BASF CORP,52411
591,2023,BASF CORPORATION,39.834118,-91.436791,PALMYRA,MARION COUNTY,MO,63461,BASF CORP,128735
592,2023,BASF Corporation,42.219195,-83.14674,Wyandotte,WAYNE COUNTY,MI,48192,BASF CORP,34964
593,2023,BASF Corporation,32.890393,-83.344945,Gordon,WILKINSON COUNTY,GA,31031,KAMIN HOLDCO LLC,39557
594,2023,BASF Corporation,32.852745,-83.232553,McIntyre,WILKINSON COUNTY,GA,31054,BASF CORP,103765
595,2023,BASF FREEPORT SITE,29.002075,-95.399777,FREEPORT,BRAZORIA COUNTY,TX,77541,BASF CORP,646435
596,2023,BASF TOTALEnergies PETROCHEMICALS LLC,29.951649,-93.887272,PORT ARTHUR,JEFFERSON COUNTY,TX,77642,BASF CORP,1906827
597,2023,BASIC AMERICAN FOODS,43.201211,-112.382433,BLACKFOOT,BINGHAM COUNTY,ID,83221,BASIC AMERICAN INC,63061
598,2023,BASIN 305 G&B,45.01368,-84.67351,GAYLORD,OTSEGO COUNTY,MI,49735,MAVERICK NATURAL RESOURCES LLC,8310
599,2023,BASIN 305 PRODUCTION,45.01368,-84.67351,GAYLORD,Unknown,MI,49735,WHITE PINE PRODUCTION LLC,527
600,2023,BATTALION OIL CORP,29.77734902,-95.54321999,HOUSTON,Unknown,TX,77024,BATTALION OIL CORP,112011
601,2023,BATTLE CREEK LANDFILL,38.622463,-78.586795,LURAY,PAGE COUNTY,VA,22835,PAGE COUNTY VIRGINIA,70617
602,2023,BAYER CROPSCIENCE,39.122417,-94.474833,KANSAS CITY,JACKSON COUNTY,MO,64120,BAYER US HOLDING LP,45378
603,2023,BAYTOWN LANDFILL,29.680398,-94.930647,BAYTOWN,HARRIS COUNTY,TX,77520,WASTE MANAGEMENT INC,25194
604,2023,BAYVIEW LANDFILL,39.95249,-111.95619,Elberta,UTAH COUNTY,UT,84626,NORTHERN UTAH ENVIRONMENTAL RESOURCE AGENCY,96106
605,2023,BBOG Gulf Coast Basin #220,29.61182,-98.49029,San Antonio,Unknown,TX,78258,BLACKBRUSH O & G LLC,26025
606,2023,BCE-Mach III LLC,35.6131551,-97.6385368,Oklahoma City,Unknown,OK,73134,ALTA MESA RESOURCES INC,244741
607,2023,BCE-Mach III Midstream Holding LLC (Boosters - 360 Anadarko Basin GB,35.614228,-97.579012,Oklahoma City,OKLAHOMA COUNTY,OK,73134,BCE-MACH III LLC,108249
608,2023,BCE-Mach III Midstream Holdings LLC - Lincoln Gas Plant,35.999,-97.8069,Dover,KINGFISHER COUNTY,OK,73734,ALTA MESA RESOURCES INC,38946
609,2023,BEACON HEATING,42.33811,-83.04382,DETROIT,WAYNE COUNTY,MI,48226,DETROIT THERMAL LLC,135765
610,2023,BEAR ISLAND PAPER COMPANY LLC,37.8181,-77.4375,ASHLAND,HANOVER COUNTY,VA,23005,Cascades Holding US,60768
611,2023,BEAR MOUNTAIN LIMITED,35.44735,-119.08652,BAKERSFIELD,KERN COUNTY,CA,93308,BEAR MOUNTAIN LTD,21205
612,2023,BEAUMONT POLYETHYLENE PLANT,30.063707,-94.218396,BEAUMONT,JEFFERSON COUNTY,TX,77713,EXXON MOBIL CORP,68634
613,2023,BECKVILLE GAS PROCESSING PLANT,32.235649,-94.486066,BECKVILLE,PANOLA COUNTY,TX,75631,M6 Midstream LLC,75958
614,2023,BEECH HOLLOW SANITARY LANDFILL *,39.12929,-82.465678,WELLSTON,JACKSON COUNTY,OH,45692,RUMPKE CONSOLIDATED COS INC,325170
615,2023,BEECHER LANDFILL,41.384838,-87.637077,BEECHER,WILL COUNTY,IL,60401,WASTE MANAGEMENT INC,2359
616,2023,BELLEFIELD BOILER PLANT,40.442121,-79.949221,PITTSBURGH,ALLEGHENY COUNTY,PA,15213,BELLEFIELD BOILER PLANT,48730
617,2023,BENEDUM GAS PLANT,31.362088,-101.77962,MIDKIFF,UPTON COUNTY,TX,79755,WTG SOUTH PERMIAN MIDSTREAM LLC,327068
618,2023,BENTELER Steel Tube Manufacturing Corp,32.34033,-93.60773,Shreveport,CADDO PARISH,LA,71115,BENTELER NORTH AMERICA CORP,34349
619,2023,BENTONITE PERFORMANCE MINERALS LLC LOVELL,44.82434,-108.14365,LOVELL,BIG HORN COUNTY,WY,82431,HALLIBURTON CO,37711
620,2023,BENTONITE PERFORMANCE MINERALS-COLONY,44.68109,-103.8518,BELLE FOURCHE,BUTTE COUNTY,SD,57717,HALLIBURTON CO,15703
621,2023,BERKELEY COUNTY LANDFILL,33.113872,-80.028486,MONCKS CORNER,BERKELEY COUNTY,SC,29461,BERKELEY COUNTY WATER & SANITATION AUTHORITY,61645
622,2023,BERNICE LAKE,60.696944,-151.379166,NIKISKI,KENAI PENINSULA BOROUGH,AK,99635,HOMER ELECTRIC ASSOC INC,127
623,2023,BETA OCS PARCELS,33.576,-118.1232,Offshore,Unknown,CA,0,AMPLIFY ENERGY CORP,35125
624,2023,BF GOODRICH TIRE MANUFACTURING,41.136194,-84.905111,WOODBURN,ALLEN COUNTY,IN,46797,MICHELIN NORTH AMERICA INC,27352
625,2023,BI-COUNTY SOLID WASTE MANAGEMENT SYSTEMS,36.538,-87.54235,Woodlawn,MONTGOMERY COUNTY,TN,37191,MONTGOMERY COUNTY GOVERNMENT,165175
626,2023,BIG RIVER LANDFILL,33.3955,-90.90665,LELAND,WASHINGTON COUNTY,MS,38756,REPUBLIC SERVICES INC,146861
627,2023,BIG RIVER RESOURCES GALVA LLC,41.169691,-90.024473,GALVA,HENRY COUNTY,IL,61434,BIG RIVER RESOURCES LLC,171305
628,2023,BIG RIVER RESOURCES WEST BURLINGTON LLC,40.83081,-91.220681,WEST BURLINGTON,DES MOINES COUNTY,IA,52655,BIG RIVER RESOURCES LLC,164883
629,2023,BIG RIVER UNITED ENERGY LLC,42.4872,-91.1633,DYERSVILLE,DELAWARE COUNTY,IA,52040,BIG RIVER RESOURCES LLC (50.5%); UNITED COOPERATIVE (34%); RUMBOLD & KUHN INC (,174051
630,2023,BIG RUN LANDFILL,38.37327,-82.75861,ASHLAND,BOYD COUNTY,KY,41102,BOYD COUNTY SANITARY LANDFILL INC,327377
631,2023,BIG SPRING REFINERY,32.269104,-101.417673,BIG SPRING,HOWARD COUNTY,TX,79720,DELEK US HOLDINGS INC,733267
632,2023,BIG WEST OIL LLC,40.838386,-111.921443,NORTH SALT LAKE,DAVIS COUNTY,UT,84054,FJ MANAGEMENT INC,323629
633,2023,BIGFOOT RUN LANDFILL,39.36463,-84.168816,MORROW,WARREN COUNTY,OH,45152,REPUBLIC SERVICES INC,2886
634,2023,BILLINGS CITY LANDFILL,45.722949,-108.543015,BILLINGS,YELLOWSTONE COUNTY,MT,59101,SOLID WASTE DIV CITY OF BILLINGS MONTANA,143249
635,2023,BIOGEN INC,42.36608,-71.08513,CAMBRIDGE,MIDDLESEX COUNTY,MA,2142,BIOGEN INC,28268
636,2023,BIOKYOWA,37.239722,-89.600278,CAPE GIRARDEAU,CAPE GIRARDEAU COUNTY,MO,63701,KYOWA HAKKO USA INC,14604
637,2023,"BIRLA CARBON USA, Inc.",37.54355,-101.19905,ULYSSES,GRANT COUNTY,KS,67880,BIRLA CARBON USA INC,105506
638,2023,BKK Corporation,34.036441,-117.902294,West Covina,LOS ANGELES COUNTY,CA,91792,BKK CORP,266287
639,2023,BKV Midstream - Cotton Cove,32.907723,-97.465856,Fort Worth,TARRANT COUNTY,TX,76179,BKV CORP,34657
640,2023,BKV Operating LLC,29.75788,-95.37013,Denver,Unknown,CO,80202,BKV OPERATING LLC,58136
641,2023,BLACK HAWK COUNTY SANITARY LANDFILL,42.41399,-92.32887,WATERLOO,BLACK HAWK COUNTY,IA,50701,COUNTY OF BLACK HAWK IOWA,173456
642,2023,BLACK OAK LANDFILL,37.2413,-92.4584,HARTVILLE,WRIGHT COUNTY,MO,65667,GFL ENVIRONMENTAL HOLDINGS (US) INC,38866
643,2023,BLACKBURN SANITARY LANDFILL,35.60606,-81.30738,NEWTON,CATAWBA COUNTY,NC,28658,COUNTY OF CATAWBA NORTH CAROLINA,96949
644,2023,BLOCK 31 GAS PLANT,31.6467,-102.52869,CRANE,CRANE COUNTY,TX,79731,OCCIDENTAL PETROLEUM CORP,116016
645,2023,BLOOMFIELD CMP STN,36.43421,-107.56535,BLOOMFIELD,Rio Arriba,NM,87413,ENERGY TRANSFER LP,22348
646,2023,BLUE RIDGE LANDFILL,29.55444,-95.45111,FRESNO,FORT BEND COUNTY,TX,77545,REPUBLIC SERVICES INC,332671
647,2023,BLUE RIDGE RECYCLING & DISPOSAL FACILITY,37.71186,-83.97614,IRVINE,ESTILL COUNTY,KY,40336,WASTE MANAGEMENT INC,8567
648,2023,BLUFF ROAD LANDFILL,40.9147,-96.6408,LINCOLN,LANCASTER COUNTY,NE,68517,CITY OF LINCOLN NEBRASKA,99135
649,2023,BMW MANUFACTURING CORPORATION,34.8956,-82.1779,GREER,SPARTANBURG COUNTY,SC,29651,BMW (US) HOLDING CORP,55825
650,2023,BOEING HELICOPTER DIV,39.862773,-75.321425,RIDLEY PARK,DELAWARE COUNTY,PA,19078,THE BOEING CO,23332
651,2023,BOISE PAPER,46.097264,-118.911147,WALLULA,WALLA WALLA COUNTY,WA,99363,PACKAGING CORP OF AMERICA,99158
652,2023,BOISE WHITE PAPER LLC,48.606,-93.4071,INTERNATIONAL FALLS,KOOCHICHING COUNTY,MN,56649,PACKAGING CORP OF AMERICA,153117
653,2023,BOISE WHITE PAPER MILL,31.492253,-87.898805,JACKSON,CLARKE COUNTY,AL,36545,PACKAGING CORP OF AMERICA,244865
654,2023,"BONANZA BIOENERGY, LLC",37.958639,-100.836,GARDEN CITY,FINNEY COUNTY,KS,67846,CONESTOGA ENERGY HOLDINGS LLC,56157
655,2023,BORGER REFINERY,35.70306,-101.36305,BORGER,HUTCHINSON COUNTY,TX,79008,PHILLIPS 66,1367497
656,2023,BOULDER LANDFILL,39.950304,-105.20126,BOULDER,BOULDER COUNTY,CO,80303,REPUBLIC SERVICES INC,11090
657,2023,BOUNTIFUL SANITARY LANDFILL,40.90655,-111.914024,WEST BOUNTIFUL,DAVIS COUNTY,UT,84087,CITY OF BOUNTIFUL UTAH,58909
658,2023,BP CHERRY POINT REFINERY,48.884,-122.735,BLAINE,WHATCOM COUNTY,WA,98230,BP AMERICA INC,2179352
659,2023,BP Whiting Business Unit,41.6703,-87.4803,WHITING,Lake,IN,46394,BP AMERICA INC,5222371
660,2023,BPE GPRP Bear Creek,47.44452,-102.797768,Killdeer,DUNN COUNTY,ND,58640,ONEOK INC,39230
661,2023,BPE GPRP Garden Creek,47.85022924,-103.1798367,Watford City,MCKENZIE COUNTY,ND,58854,ONEOK INC,52387
662,2023,BPE GPRP Grasslands Gas Plant,47.59043,-104.0005,Cartwright,Mckenzie,ND,58838,ONEOK INC,64590
663,2023,BPE GPRP Stateline,48.22687,-103.94446,Williston,WILLIAMS COUNTY,ND,58801,ONEOK INC,65314
664,2023,BPH PowderRiverBasinWY,45.77851744,-108.545826,Billings,Unknown,MT,59102,BALLARD PETROLEUM HOLDINGS LLC,63499
665,2023,BPX Energy 220 Gulf Coast Basin GB,29.78037,-95.6295,Cuero,Unknown,TX,77954,BP AMERICA INC (75%); KINDER MORGAN INC,161835
666,2023,"BPX Energy Arkla Basin, AAPG Basin 230",29.7531,-95.46212,Houston,Unknown,TX,77079,BP AMERICA INC,147003
667,2023,"BPX Energy Permian Basin, AAPG Basin 430",36.0613546,-95.9515399,Houston,Unknown,TX,77079,BP AMERICA INC,451411
668,2023,BPX Operating Company,29.7531,-95.46212,Denver,Unknown,CO,80202,BP AMERICA INC,233478
669,2023,BRACKENRIDGE PLANT,40.6081,-79.7291,BRACKENRIDGE,ALLEGHENY COUNTY,PA,15014,ALLEGHENY TECHNOLOGIES INC,121704
670,2023,BRADLEY COUNTY LANDFILL,35.156568,-84.958905,MCDONALD,BRADLEY COUNTY,TN,37353,REPUBLIC SERVICES INC,185601
671,2023,BRADLEY LANDFILL & RECYCLING CENTER,34.236582,-118.380498,SUN VALLEY,LOS ANGELES COUNTY,CA,91352,WASTE MANAGEMENT INC,15414
672,2023,BRASKEM AMERICA INC - LAPORTE SITE,29.704027,-95.079932,LA PORTE,HARRIS COUNTY,TX,77571,BRASKEM AMERICA INC,36791
673,2023,BRASKEM AMERICA NEAL PLANT,38.355722,-82.594836,KENOVA,WAYNE COUNTY,WV,25530,BRASKEM AMERICA INC,29361
674,2023,BRENT RUN LANDFILL,43.173752,-83.839145,MONTROSE,GENESEE COUNTY,MI,48457,GFL ENVIRONMENTAL HOLDINGS (US) INC,58699
675,2023,BREVARD CO BOARD OF COUNTY COMMISSIONERS,28.395857,-80.820761,COCOA,BREVARD COUNTY,FL,32926,COUNTY OF BREVARD FLORIDA,671663
676,2023,BRICKYARD DISPOSAL LANDFILL,40.099998,-87.599998,DANVILLE,VERMILION COUNTY,IL,61832,REPUBLIC SERVICES INC,29589
677,2023,BRIDGEPORT ETHANOL LLC,41.6559,-103.09363,BRIDGEPORT,MORRILL COUNTY,NE,69336,BRIDGEPORT ETHANOL LLC,53788
678,2023,BRIDGEPORT GAS PROCESSING PLANT,33.195661,-97.8037,BRIDGEPORT,WISE COUNTY,TX,76426,ENLINK MIDSTREAM LLC,536932
679,2023,BRIDGESTONE AMERICAS TIRE OPERATIONS LLC,36.00463,-86.5991,LA VERGNE,RUTHERFORD COUNTY,TN,37086,BRIDGESTONE AMERICAS INC,26065
680,2023,"BRIDGESTONE AMERICAS TIRE OPERATIONS, LLC",41.64499,-93.62136,DES MOINES,POLK COUNTY,IA,50313,BRIDGESTONE AMERICAS INC,41169
681,2023,BRIDGESTONE FIRESTONE INCORPORATED,35.75598,-77.86917,WILSON,WILSON COUNTY,NC,27893,BRIDGESTONE AMERICAS INC,40373
682,2023,BRIDGETON LANDFILL,38.771223,-90.443673,BRIDGETON,ST. LOUIS COUNTY,MO,63044,REPUBLIC SERVICES INC,4976
683,2023,BRIGHAM YOUNG UNIVERSITY,40.25243,-111.65027,PROVO,UTAH COUNTY,UT,84602,CORP OF THE PRESIDENT OF THE CHURCH OF JESUS CHRIST OF LATTER-DAY SAINTS,78141
684,2023,BRISTOL HILL SANITARY LANDFILL,43.33849,-76.33977,FULTON,OSWEGO COUNTY,NY,13069,COUNTY OF OSWEGO NEW YORK,52820
685,2023,BRISTOL INTEGRATED SOLID WASTE MANAGEMENT FACILITY,36.603075,-82.153334,BRISTOL,BRISTOL CITY,VA,24201,CITY OF BRISTOL VA,13735
686,2023,BRISTOL MYERS SQUIBB INC,40.47492,-74.44511,NORTH BRUNSWICK,MIDDLESEX COUNTY,NJ,8902,BRISTOL-MYERS SQUIBB CO,53542
687,2023,BROADACRE LANDFILL - FOUNTAIN LANDFILL,38.679516,-104.628161,FOUNTAIN,EL PASO COUNTY,CO,80817,WASTE CONNECTIONS US INC,14930
688,2023,BROKEN ARROW LANDFLL,36.0851,-95.7328,BROKEN ARROW,WAGONER COUNTY,OK,74014,A TIMOSHENKO (75%); OKLAHOMA TRANSPORTATION AUTHORITY (7%); CITY OF BROKEN ARROW,4236
689,2023,BROOKINGS CITY LANDFILL,44.301056,-96.790687,BROOKINGS,BROOKINGS COUNTY,SD,57006,CITY OF BROOKINGS LANDFILL,41062
690,2023,BROOKS LANDFILL,37.75793,-97.3899,WICHITA,SEDGWICK COUNTY,KS,67205,CITY OF WICHITA KANSAS,187249
691,2023,BROOME CO NANTICOKE LANDFILL,42.24379,-75.98545,BINGHAMTON,BROOME COUNTY,NY,13905,BROOME COUNTY DIV OF SOLID WASTE MANAGEMENT,40199
692,2023,BROWARD COUNTY LANDFILL,26.03089,-80.42299,FORT LAUDERDALE,BROWARD COUNTY,FL,33332,BROWARD COUNTY SOLID WASTE & RECYCLING SERVICES,33794
693,2023,BROWN COUNTY LANDFILL,45.464865,-98.487225,ABERDEEN,BROWN COUNTY,SD,57401,COUNTY OF BROWN SOUTH DAKOTA,55468
694,2023,BROWN UNIVERSITY MAIN CAMPUS,41.99158,-71.510908,PROVIDENCE,PROVIDENCE COUNTY,RI,2912,Brown University,24994
695,2023,BROWN-FORMAN DISTILLERY (FORMERLY EARLY TIMES DISTILLERS CO),38.20874,-85.7925,LOUISVILLE,JEFFERSON COUNTY,KY,40216,BROWN-FORMAN CORP,23264
696,2023,"BRUNDIDGE LANDFILL, LLC",31.7003,-85.8433,BRUNDIDGE,PIKE COUNTY,AL,36010,BRUNDIDGE ACQUISITIONS,41530
697,2023,BRUNSWICK WASTE MANAGEMENT FACILITY,36.762423,-77.809706,LAWRENCEVILLE,BRUNSWICK COUNTY,VA,23868,REPUBLIC SERVICES INC,52172
698,2023,BTA 430 Permian Basin,31.99692,-102.08085,Midland,Unknown,TX,79701,BTA OIL PRODUCERS LLC,162898
699,2023,BTT EPIC Frac,27.82347,-97.60789,Robstown,NUECES COUNTY,TX,78380,EPIC MIDSTREAM LLC,128580
700,2023,BUCKSPORT GENERATION LLC,44.576944,-68.805556,BUCKSPORT,HANCOCK COUNTY,ME,4416,AIM Development USA LLC,9334
701,2023,BUENA VISTA DRIVE SANITARY LANDFILL,36.91657,-121.81525,WATSONVILLE,SANTA CRUZ COUNTY,CA,95076,COUNTY OF SANTA CRUZ DEPARTMENT OF PUBLIC WORKS,19457
702,2023,BUICK RESOURCE RECYCLING FACILITY,37.639278,-91.135528,BOSS,IRON COUNTY,MO,65440,THE RENCO GROUP INC,106812
703,2023,BUNCOMBE COUNTY NEW LANDFILL,35.72811,-82.64221,ALEXANDER,BUNCOMBE COUNTY,NC,28701,COUNTY OF BUNCOMBE NORTH CAROLINA,70464
704,2023,"BUNGE LODERS CROKLAAN USA, LLC",41.408978,-88.210161,CHANNAHON,WILL COUNTY,IL,60410,LODERS CROKLAAN USA LLC,44845
705,2023,BUNGE NORTH AMERICA,41.28473,-82.82024,BELLEVUE,HURON COUNTY,OH,44811,BUNGE NORTH AMERICA INC,74720
706,2023,BUNGE NORTH AMERICA,39.679788,-85.687207,MORRISTOWN,SHELBY COUNTY,IN,46161,BUNGE NORTH AMERICA INC,71512
707,2023,BUNGE NORTH AMERICA INC,34.605565,-86.965566,DECATUR,MORGAN COUNTY,AL,35601,BUNGE NORTH AMERICA INC,84067
708,2023,"BUNGE NORTH AMERICA, INC.",38.40497,-96.17098,EMPORIA,LYON COUNTY,KS,66801,BUNGE NORTH AMERICA INC,32616
709,2023,BURLINGTON CNTY RESOURCE RECOVERY COMPLEX,40.0758,-74.7617,COLUMBUS,BURLINGTON COUNTY,NJ,8022,BURLINGTON COUNTY NEW JERSEY,60010
710,2023,BURNSVILLE SANITARY LANDFILL,44.785343,-93.318085,BURNSVILLE,DAKOTA COUNTY,MN,55337,WASTE MANAGEMENT INC,39396
711,2023,BUSCH AGRICULTURAL RESOURCES,43.447,-112.07287,IDAHO FALLS,BONNEVILLE COUNTY,ID,83402,ANHEUSER-BUSCH COS LLC,57983
712,2023,BUSHMILLS ETHANOL INC.,45.137845,-94.807119,ATWATER,KANDIYOHI COUNTY,MN,56209,BUSHMILLS ETHANOL INC,113085
713,2023,BUTLER COUNTY LANDFILL,36.884441,-90.303134,POPLAR BLUFF,BUTLER COUNTY,MO,63902,REPUBLIC SERVICES INC,34784
714,2023,BUTLER COUNTY LANDFILL,37.76633,-96.89577,EL DORADO,BUTLER COUNTY,KS,67042,BUTLER COUNTY KANSAS,48961
715,2023,BUTLER COUNTY LANDFILL INCORPORATED,41.258598,-97.037286,DAVID CITY,BUTLER COUNTY,NE,68632,WASTE CONNECTIONS US INC,86332
716,2023,BUTTERFIELD STATION LANDFILL,33.07995,-112.27186,MOBILE,MARICOPA COUNTY,AZ,85139,WASTE MANAGEMENT INC,32808
717,2023,BVPV Styrenics LLC,40.655278,-80.356389,Monaca,BEAVER COUNTY,PA,15061,STYROPEK USA INC,33538
718,2023,Bacliff Generating Station,29.505222,-94.959361,Bacliff,GALVESTON,TX,77518,ROCKLAND CAPITAL LLC,180017
719,2023,Baconton,31.3869,-84.0819,BACONTON,Mitchell,GA,31716,SOWEGA ENERGY RESOURCES LLC (65%); TEJAS POWER GENERATION LLC,19931
720,2023,Bailey Mine-Crabapple Portal,39.92264,-80.46456,Wind Ridge,GREENE COUNTY,PA,15380,CONSOL ENERGY INC,2817632
721,2023,Bainbridge Compressor Station,39.75982,-86.85381,Bainbridge,PUTNAM COUNTY,IN,46105,TALLGRASS DEVELOPMENT LP (75%); PHILLIPS 66,98705
722,2023,Bakelite Synthetics,38.195278,-85.872222,Louisville,JEFFERSON COUNTY,KY,40216,BAKELITE LLC,30049
723,2023,Baker Pl Rd Landfill,33.48929,-82.24489,Grovetown,COLUMBIA COUNTY,GA,30813,COLUMBIA COUNTY GEORGIA,21803
724,2023,Bakersfield Compressor Station,30.845,-102.1956,Bakersfield,PECOS COUNTY,TX,79735,ENERGY TRANSFER LP,46783
725,2023,Bakersfield Compressor Station,30.89563236,-102.8886216,Fort Stockton,Unknown,TX,79735,BERKSHIRE HATHAWAY INC,25183
726,2023,Baldwin Energy Complex,38.205,-89.855,BALDWIN,Randolph,IL,62217,Vistra Corp,6075627
727,2023,Baltimore Gas & Electric Company,39.271299,-76.618519,Baltimore,BALTIMORE CITY,MD,21230,EXELON CORP,173108
728,2023,Bandera Compressor Station,29.74086,-99.143532,Bandera,Unknown,TX,78003,ENTERPRISE PRODUCTS PARTNERS LP,39353
729,2023,Barnes-Jewish Hospital,38.636145,-90.265666,St. Louis,ST. LOUIS CITY,MO,63110,BJC HEALTHCARE,33511
730,2023,Barney M. Davis,27.6067,-97.3119,Corpus Christi,Nueces,TX,78418,TALEN ENERGY CORP,717549
731,2023,Barry,31.0069,-88.0103,BUCKS,Mobile,AL,36512,THE SOUTHERN CO,5007385
732,2023,Basic American Foods,47.075778,-119.222474,Moses Lake,GRANT COUNTY,WA,98837,BASIC AMERICAN INC,24110
733,2023,Basic American Foods Rexburg,43.838063,-111.783121,Rexburg,MADISON COUNTY,ID,83440,BASIC AMERICAN INC,48508
734,2023,Basin 220 - Extex Operating Company,30.4587407,-90.1307797,Covington,Unknown,LA,70433,KREWE ENERGY LLC,13334
735,2023,Basin 360 - Mach,36.94208,-99.213,Oklahoma City,Unknown,OK,73134,BCE-MACH LLC,664903
736,2023,Basin 360 - Mach II,35.614157,-97.580313,Oklahoma City,Unknown,OK,73134,BCE-MACH II LLC,147255
737,2023,Basin 375 - BCE-Mach LLC,35.614157,-97.580313,Oklahoma City,Unknown,OK,73134,BCE-MACH LLC,2828
738,2023,Basin 395 North Dakota - OSP,32.7871,-96.80262,Dallas,Unknown,TX,75201,Hunt Consolidated,99497
739,2023,Basin 430 G&B,32.78774607,-96.80245853,Houston,Unknown,TX,77079,HUNT CRUDE OIL SUPPLY CO LLC,360125
740,2023,Basin 430 Production,32.7871,-96.80262,Houston,Unknown,TX,77079,VENCER ENERGY LLC,102967
741,2023,Basin 540 Denver Julesburg  G&B,29.9601879,-95.5587992,Houston,Unknown,TX,77070,CHEVRON CORP,352164
742,2023,Basin 540 Denver Julesburg - Noble Energy Inc.,29.960188,-95.558799,Houston,HARRIS COUNTY,TX,77070,CHEVRON CORP,322406
743,2023,Basin Creek Plant,45.92942,-112.52462,Butte,SILVER BOW COUNTY,MT,59701,MILEPOST POWER INC (94.89%); BASIN CREEK POWER SERVICES LLC (,55610
744,2023,Basin Electric Power Cooperative,46.83447,-100.76678,Bismarck,BURLEIGH COUNTY,ND,58503,BASIN ELECTRIC POWER COOPERATIVE,38519
745,2023,Bastrop Clean Energy Center,30.1458,-97.55,CEDAR CREEK,Bastrop,TX,78612,BASTROP ENERGY PARTNERS LP,1153440
746,2023,Batavia Energy,42.9828,-78.1592,Batavia,GENESEE COUNTY,NY,14020,ALLIANCE ENERGY GROUP LLC,3137
747,2023,Batesville Generation Facility,34.33639,-89.92906,BATESVILLE,Panola,MS,38606,COOPERATIVE ENERGY A MISSISSIPPI ELECTRIC COOPERATIVE,1980799
748,2023,Batesville Water & Gas Utility,39.298528,-85.214528,Batesville,RIPLEY COUNTY,IN,47006,BATESVILLE NATURAL GAS,388
749,2023,Battle Horse Plant,30.1619,-96.56315,Brenham,WASHINGTON COUNTY,TX,77833,ASPEN MIDSTREAM LLC,155102
750,2023,Battlefield Gas Plant,31.96785,-93.67311,Mansfield,Unknown,LA,71052,ENTERPRISE PRODUCTS PARTNERS LP,311054
751,2023,"Bavarian Trucking Co., Inc.",38.86293,-84.65671,Walton,BOONE COUNTY,KY,41094,BAVARIAN TRUCKING CO INC,32576
752,2023,Baxter Healthcare Corp,36.35963042,-92.38601169,Mountain Home,Unknown,AR,72653,BAXTER INTERNATIONAL INC,43204
753,2023,Bay Front,46.5869,-90.9017,ASHLAND,Ashland,WI,54806,XCEL ENERGY INC,14220
754,2023,Bay Shore,41.6925,-83.4375,OREGON,Lucas,OH,43616,WALLEYE POWER LLC,1219133
755,2023,Bayer CropScience LP,41.35216,-91.08383,MUSCATINE,MUSCATINE COUNTY,IA,52761,BAYER US HOLDING LP,73944
756,2023,Bayer CropScience LP - Luling Site,29.92444,-90.352217,LULING,ST. CHARLES PARISH,LA,70070,BAYER US HOLDING LP,63150
757,2023,Bayonne Energy Center,40.6529,-74.0916,Bayonne,Hudson,NJ,7002,BAYONNE ENERGY CENTER LLC,396459
758,2023,"Bayonne Plant Holding, LLC",40.6553,-74.1124,BAYONNE,Hudson,NJ,7002,IMTT-BAYONNE LLC,34515
759,2023,Bayou Cogeneration Plant,29.6225,-95.0458,PASADENA,Harris,TX,77507,AMERICAN AIR LIQUIDE HOLDINGS INC,2017198
760,2023,Bayou Cove Peaking Power Plant,30.2825,-92.5994,JENNINGS,Acadia,LA,70546,CLECO CORPORATE HOLDINGS LLC,105116
761,2023,Bayou Long Mobile Production Facility,29.9534,-91.3219,Pierre Part,ST. MARTIN PARISH,LA,70339,Highlander Oil & Gas Assets LLC (72%); TEX MONCRIEF EXPLORACOUNT II LLC (18%); ENERGY XXI ONSHORE LLC,15540
762,2023,Bayport Polymers LLC - HDPE Plant,29.63515,-95.0576,Pasadena,HARRIS COUNTY,TX,77507,BAYPORT POLYMERS LLC,61724
763,2023,Bayport Polymers LLC Ethane Cracker,29.96001,-93.89558,Port Arthur,JEFFERSON COUNTY,TX,77642,BAYPORT POLYMERS LLC,1167421
764,2023,Bayside Power Station,27.9072,-82.4231,TAMPA,Hillsborough,FL,33619,TECO ENERGY INC,2364840
765,2023,Bayswater Exploration & Production Denver Basin (540) Operations,39.7466,-104.99159,Denver,Unknown,CO,80202,BAYSWATER EXPLORATION & PRODUCTION LLC,188853
766,2023,"Bayswater Operating, LLC (430) Permian Basin",39.7471385,-104.991537,DENVER,Unknown,CO,80202,BAYSWATER EXPLORATION & PRODUCTION LLC,116192
767,2023,Bayswater Peaking Facility,40.6106,-73.7614,FAR ROCKAWAY,Queens,NY,11691,MPH ROCKAWAY PEAKERS HOLDCO LLC,75535
768,2023,Baytown Energy Center,29.7731,-94.9019,BAYTOWN,Chambers,TX,77523,CPN MANAGEMENT LP,2104515
769,2023,Bear Den Gas Plant,47.714847,-103.226817,Watford City,MCKENZIE COUNTY,ND,58572,ENERGY TRANSFER LP,63811
770,2023,Bear Garden Generating Station,37.6961,-78.2848,New Canton,Buckingham,VA,23123,DOMINION ENERGY INC,1146397
771,2023,Bear Gas Plant,31.7746,-103.9021,Orla,REEVES COUNTY,TX,79770,ENERGY TRANSFER LP,43435
772,2023,Bearkat Cryogenic Plant,31.960698,-101.4902,Garden City,GLASSCOCK COUNTY,TX,79739,ENLINK MIDSTREAM LLC,9494
773,2023,Beatrice,40.3286,-96.8067,BEATRICE,Gage,NE,68310,NEBRASKA PUBLIC POWER DISTRICT,279020
774,2023,Beatrice Area Solid Waste Agency,40.219351,-96.768673,Beatrice,GAGE COUNTY,NE,68310,CITY OF BEATRICE NEBRASKA,26647
775,2023,Beatrice Compressor Station,40.22036,-96.7461,Beatrice,GAGE COUNTY,NE,68310,BERKSHIRE HATHAWAY INC,41033
776,2023,Beaumont Terminal,29.997801,-93.983184,Nederland,JEFFERSON COUNTY,TX,77627,PHILLIPS 66,10575
777,2023,Beaver,46.172817,-123.17502,CLATSKANIE,COLUMBIA COUNTY,OR,97016,PORTLAND GENERAL ELECTRIC CO,912292
778,2023,Beaver Compressor Station,36.61706,-100.425269,Elmwood,BEAVER COUNTY,OK,73932,BERKSHIRE HATHAWAY INC,58424
779,2023,Beaver Dam Energy LLC,41.6508891,-76.8028933,Canton,Unknown,PA,17724,BEAVER DAM ENERGY LLC,30439
780,2023,Beaver Gas Plant,36.72641,-100.29269,Beaver,BEAVER COUNTY,OK,73932,ENERGY TRANSFER LP,55505
781,2023,Bechtelsville,40.41962,-75.6225,Barto,BERKS COUNTY,PA,19504,Enbridge (US) Inc,37429
782,2023,Bedford County Landfill,37.256434,-79.482325,Bedford,BEDFORD COUNTY,VA,24523,COUNTY OF BEDFORD VA,31387
783,2023,Bedrock 415 Strawn Basin,33.22296,-97.764994,Bridgeport,Unknown,TX,76426,BEDROCK ENERGY PARTNERS LLC,44273
784,2023,Bedrock 420 Fort Worth Syncline,33.223764,-97.764994,Bridgeport,Unknown,TX,76426,BEDROCK ENERGY PARTNERS LLC,181941
785,2023,Bee Ridge Landfill,27.29864,-82.39811,Sarasota,SARASOTA COUNTY,FL,34241,COUNTY OF SARASOTA FLORIDA,31278
786,2023,Befesa Zinc US INC,33.244137,-81.472843,Barnwell,BARNWELL COUNTY,SC,29812,BEFESA ZINC US INC,105187
787,2023,Befesa Zinc US INC,35.86959,-84.69576,Rockwood,ROANE COUNTY,TN,37854,BEFESA ZINC US INC,15308
788,2023,Befesa Zinc US INC,40.807928,-75.587928,Palmerton,CARBON COUNTY,PA,18071,BEFESA ZINC US INC,105609
789,2023,Befesa Zinc US INC,41.687371,-87.554861,CHICAGO,COOK COUNTY,IL,60617,BEFESA ZINC US INC,101160
790,2023,Belews Creek,36.2811,-80.0603,BELEWS CREEK,Stokes,NC,27052,DUKE ENERGY CORP,5584208
791,2023,Belfield Gas Plant,46.86071,-103.215,Belfield,Unknown,ND,58622,MARATHON PETROLEUM CORP,25777
792,2023,Belle Isle Battery I Production Facility,29.5289,-91.4052,Morgan City,ST. MARY PARISH,LA,70380,TEXAS PETROLEUM INVESTMENT CO,22691
793,2023,Belle River,42.7748,-82.4945,SAINT CLAIR HAVEN,Saint Clair,MI,48054,DTE ENERGY CO,5816276
794,2023,Belle River Compressor Station,42.788,-82.5306,E China Twp,ST. CLAIR COUNTY,MI,48054,DTE ENERGY CO,78507
795,2023,Bellingham,42.0925,-71.4833,BELLINGHAM,Norfolk,MA,2019,NEXTERA ENERGY INC,47720
796,2023,Bellingham Power Generation LLC,42.1113,-71.4529,BELLINGHAM,Norfolk,MA,2019,Vistra Corp,1217538
797,2023,Bellmon Gas Plant,36.621883,-97.426383,Tonkawa,KAY COUNTY,OK,74653,UNIT CORP,37100
798,2023,Belpre Carbon Black Plant,39.30487,-81.56691,Belpre,WASHINGTON COUNTY,OH,45714,ORION ENGINEERED CARBONS LLC,129981
799,2023,Benndale Peaking Station,30.88822195,-88.80525872,Benndale,Unknown,MS,39452,COOPERATIVE ENERGY A MISSISSIPPI ELECTRIC COOPERATIVE,24809
800,2023,Bennett Mountain Power Project,43.147,-115.6671,Mountain Home,Elmore,ID,83647,IDACORP INC,407421
801,2023,Bennington Compressor Station,33.98277,-96.0041,Bennington,BRYAN COUNTY,OK,74723,ENERGY TRANSFER LP,32450
802,2023,Benson Valley LF,38.130462,-84.98666,FRANKFORT,FRANKLIN COUNTY,KY,40601,REPUBLIC SERVICES INC,26622
803,2023,Benton Gas System,36.85812,-88.35076,Benton,MARSHALL COUNTY,KY,42025,CITY OF BENTON KENTUCKY,1398
804,2023,Bergen,40.8375,-74.0244,RIDGEFIELD,Bergen,NJ,7657,ARCLIGHT ENERGY PARTNERS FUND VII LP,1111182
805,2023,Berkshire Power,42.0476,-72.6478,AGAWAM,Hampden,MA,1001,BERKSHIRE POWER CO,27807
806,2023,Bernville Station,40.4092,-76.1511,Robesonia,Berks,PA,19551,Enbridge (US) Inc,40991
807,2023,Berry Petroleum Company - San Joaquin Basin 745,39.7483,-104.9874,Bakersfield,Unknown,CA,93311,BERRY CORP (BRY),1008042
808,2023,Berry Petroleum Company - Uinta Basin 575,39.7483,-104.9874,Denver,Unknown,CO,80202,BERRY CORP (BRY),139435
809,2023,Berry Petroleum Company 575 Uinta Basin Gathering and Boosting,35.368562,-119.060231,Bakersfield,KERN COUNTY,CA,93309,BERRY CORP (BRY),34282
810,2023,Bertrand Compressor Station,40.5087,-99.478382,Loomis,PHELPS COUNTY,NE,68958,TALLGRASS DEVELOPMENT LP (75%); PHILLIPS 66,12437
811,2023,Bethel Compressor Station,31.893889,-95.937778,Tennessee Colony,ANDERSON COUNTY,TX,75861,ENTERPRISE PRODUCTS PARTNERS LP,42288
812,2023,Bethel Compressor Station,31.8911,-95.9144,Tennessee Colony,ANDERSON COUNTY,TX,75861,ENERGY TRANSFER LP,15766
813,2023,Bethel Gas Treating Facility,31.800928,-96.110294,Tennessee Colony,FREESTONE COUNTY,TX,75861,COMSTOCK RESOURCES INC,62294
814,2023,Bethel Power Plant,60.78796,-161.791099,Bethel,BETHEL CENSUS AREA,AK,99559,ALASKA VILLAGE ELECTRIC COOPERATIVE,31288
815,2023,Bethlehem Energy Center (Albany),42.5905,-73.7636,GLENMONT,Albany,NY,12077,ARCLIGHT ENERGY PARTNERS FUND VII LP,2273112
816,2023,Bethlehem Landfill Company,40.622025,-75.303509,BETHLEHEM,NORTHAMPTON COUNTY,PA,18015,WASTE CONNECTIONS US INC,66314
817,2023,Bethlehem Power Plant,40.6175,-75.3147,BETHLEHEM,Northampton,PA,18015,CPN MANAGEMENT LP,2638013
818,2023,Bethpage Energy Center,40.7469,-73.4994,HICKSVILLE,Nassau,NY,11801,CPN MANAGEMENT LP,315227
819,2023,"Biewer Sawmill - Newton, LLC",32.361944,-89.133889,Newton,NEWTON COUNTY,MS,39345,BIEWER LUMBER LLC,38019
820,2023,"Biewer Sawmill - Winona, Inc.",33.52572467,-89.73447806,Winona,Unknown,MS,38967,BIEWER LUMBER LLC,38807
821,2023,Big Bend,27.7944,-82.4036,APOLLO BEACH,Hillsborough,FL,33572,TECO ENERGY INC,3002504
822,2023,Big Cajun 1,30.6736,-91.3525,JARREAU,Pointe Coupee,LA,70749,CLECO CORPORATE HOLDINGS LLC,188863
823,2023,Big Cajun 2,30.7261,-91.3669,NEW ROADS,Pointe Coupee,LA,70760,LOUISIANA GENERATING LLC (86%); ENTERGY CORP,2106119
